Account Name,nsbi_sector,Deal Type,NSBI Financial Contribution (Commitment/Announced),Place Name,nsbi_county,PostalCode,fiscal year,Longitude,Latitude,New Georeferenced Column
Northern Business Intelligence,ICT (includes Digital Media),Business Development Program,10850,Dartmouth,Halifax Regional Municipality,B3B1T4,2018 - 2019,-63.59236,44.70609,POINT (-63.59236 44.70609)
Fourth State Energy Incorporated,Energy,Business Development Program,3750,Halifax,Halifax Regional Municipality,B3J2L4,2018 - 2019,-63.632286,44.654755,POINT (-63.632286 44.654755)
Skinfix Inc,Advanced Manufacturing,Business Development Program,8100,Halifax,Halifax Regional Municipality,B3J1R9,2018 - 2019,-63.570552,44.645084,POINT (-63.570552 44.645084)
Singolar Inc,ICT (includes Digital Media),Business Development Program,15000,Bridgewater,Lunenburg,B4V6Y1,2018 - 2019,-64.6186263,44.4261574,POINT (-64.6186263 44.4261574)
Truro Herbal Co.,Life Sciences,Business Development Program,15000,Truro,Colchester,B2N1M8,2018 - 2019,-63.298648,45.371086,POINT (-63.298648 45.371086)
SimplyCast Interactive Marketing LTD.,ICT (includes Digital Media),Business Development Program,12500,Dartmouth,Halifax Regional Municipality,B2W6E2,2018 - 2019,-63.535262,44.681461,POINT (-63.535262 44.681461)
En Point Inc,ICT (includes Digital Media),Business Development Program,2520,Halifax,Halifax Regional Municipality,B3J3M8,2018 - 2019,-63.5727,44.647395,POINT (-63.5727 44.647395)
BlueLight Analytics Inc,Life Sciences,Business Development Program,25000,Halifax,Halifax Regional Municipality,B3L4G4,2018 - 2019,-63.620539,44.642071,POINT (-63.620539 44.642071)
Ednaturals Bar,Agri-food,Business Development Program,2450,Halifax,Halifax Regional Municipality,B3P1H5,2018 - 2019,-63.610642,44.617409,POINT (-63.610642 44.617409)
Victoria Co-Operative Fisheries Ltd,Fish & Seafood Processing,Business Development Program,15000,Neils Harbour,Victoria,B0C1N0,2018 - 2019,-60.343878,46.762745,POINT (-60.343878 46.762745)
Focal Technologies Corporation,Oceans Technology,Business Development Program,4775,Dartmouth,Halifax Regional Municipality,B3B1Z4,2018 - 2019,-63.587502,44.711855,POINT (-63.587502 44.711855)
Cove Kombucha,Agri-food,Business Development Program,8400,Halifax,Halifax Regional Municipality,B3J2J9,2018 - 2019,-63.576924,44.640981,POINT (-63.576924 44.640981)
Dormie Golf Workshop Inc.,Advanced Manufacturing,Business Development Program,14950,Halifax,Halifax Regional Municipality,B3K2Y3,2018 - 2019,-63.590301,44.660963,POINT (-63.590301 44.660963)
B4Checkin Limited,ICT (includes Digital Media),Business Development Program,19000,Halifax,Halifax Regional Municipality,B3J3S9,2018 - 2019,-63.586911,44.640361,POINT (-63.586911 44.640361)
Barrelling Tide Distillery,Agri-food,Business Development Program,6875,Port Williams,Kings,B0P1T0,2018 - 2019,-64.362715,45.159695,POINT (-64.362715 45.159695)
Fundmetric Incorporated,ICT (includes Digital Media),Business Development Program,7500,Halifax,Halifax Regional Municipality,B3J3K3,2018 - 2019,-63.57813098,44.64335495,POINT (-63.57813098 44.64335495)
Ven-Rez Products Ltd,Advanced Manufacturing,Business Development Program,16832,Shelburne,Shelburne,B0T1W0,2018 - 2019,-65.41816,43.66134,POINT (-65.41816 43.66134)
Riverside Lobster International Inc,Fish & Seafood Processing,Business Development Program,15000,Meteghan,Digby,B0W2J0,2018 - 2019,-66.258852,44.158134,POINT (-66.258852 44.158134)
Precision BioLogic Incorporated,Life Sciences,Business Development Program,4750,Dartmouth,Halifax Regional Municipality,B3B0A9,2018 - 2019,-63.573165,44.695212,POINT (-63.573165 44.695212)
Duckish Natural Skin Care Limited,Advanced Manufacturing,Business Development Program,9375,Halifax,Halifax Regional Municipality,B3L1K1,2018 - 2019,-63.595101,44.649822,POINT (-63.595101 44.649822)
GeoNavo Positioning Systems Inc,ICT (includes Digital Media),Business Development Program,15000,Hammonds Plains,Halifax Regional Municipality,B4B2B8,2018 - 2019,-63.800164,44.734087,POINT (-63.800164 44.734087)
Eyeread Inc.,ICT (includes Digital Media),Business Development Program,15000,Dartmouth,Halifax Regional Municipality,B3B1E8,2018 - 2019,-63.613528,44.694128,POINT (-63.613528 44.694128)
WarrierTech Inc,ICT (includes Digital Media),Business Development Program,13336,Halifax,Halifax Regional Municipality,B3H1Y1,2018 - 2019,-63.5849,44.640901,POINT (-63.5849 44.640901)
Unleash Surf Inc.,Travel & Accommodation,Business Development Program,5000,Halifax,Halifax Regional Municipality,B3K3S3,2018 - 2019,-63.590597,44.655797,POINT (-63.590597 44.655797)
THE WELL - CREATIVE CONSULTANTS INC.,ICT (includes Digital Media),Business Development Program,15000,Upper Tantallon,Halifax Regional Municipality,B3Z4R3,2018 - 2019,-63.86772,44.69243,POINT (-63.86772 44.69243)
BMC Seafoods Ltd,Fish & Seafood Processing,Business Development Program,3200,Meteghan,Digby,B0W2J0,2018 - 2019,-66.258852,44.158134,POINT (-66.258852 44.158134)
Atlantic Institute for Resilience Inc.,Life Sciences,Business Development Program,13750,Halifax,Halifax Regional Municipality,B3H1Y4,2018 - 2019,-63.585161,44.640827,POINT (-63.585161 44.640827)
Cribcut,ICT (includes Digital Media),Business Development Program,7500,Halifax,Halifax Regional Municipality,B3J3R7,2018 - 2019,-63.57614729,44.65208895,POINT (-63.57614729 44.65208895)
Sealand Building Group Inc,Advanced Manufacturing,Business Development Program,22500,Halifax,Halifax Regional Municipality,B4B1G2,2018 - 2019,-63.741086,44.724533,POINT (-63.741086 44.724533)
Keeping Roads Safe Technologies Inc,ICT (includes Digital Media),Business Development Program,2850,Bedford,Halifax Regional Municipality,B4B1H1,2018 - 2019,-63.710231,44.722456,POINT (-63.710231 44.722456)
Tony's Meats Ltd,Agri-food,Business Development Program,5980,Antigonish,Antigonish,B2G2L2,2018 - 2019,-61.944846,45.654903,POINT (-61.944846 45.654903)
Stark International Inc,Energy,Business Development Program,7500,New Glasgow,Pictou,B2H2T3,2018 - 2019,-62.6438518,45.58895964,POINT (-62.6438518 45.58895964)
Made with Local Snack Foods Inc.,Agri-food,Business Development Program,15750,Dartmouth,Halifax Regional Municipality,B2Y2V9,2018 - 2019,-63.568797,44.669949,POINT (-63.568797 44.669949)
BioMedica Diagnostics Inc,Life Sciences,Business Development Program,13500,Windsor,Hants,B0N2T0,2018 - 2019,-64.318054,44.819594,POINT (-64.318054 44.819594)
InterTalk Critical Information Systems Inc,ICT (includes Digital Media),Business Development Program,14850,Dartmouth,Halifax Regional Municipality,B3B1J4,2018 - 2019,-63.611144,44.704132,POINT (-63.611144 44.704132)
Bend Beauty Inc.,Life Sciences,Business Development Program,10000,Halifax,Halifax Regional Municipality,B3J1C7,2018 - 2019,-63.577291,44.639639,POINT (-63.577291 44.639639)
Hanatech IOT Inc.,ICT (includes Digital Media),Business Development Program,15000,Bedford,Halifax Regional Municipality,B4A1E8,2018 - 2019,-63.655971,44.733116,POINT (-63.655971 44.733116)
Made with Local Snack Foods Inc.,Agri-food,Business Development Program,2100,Dartmouth,Halifax Regional Municipality,B2Y2V9,2018 - 2019,-63.568797,44.669949,POINT (-63.568797 44.669949)
Chocolate Hackers,Agri-food,Business Development Program,375,Halifax,Halifax Regional Municipality,B3K2H7,2018 - 2019,-63.604915,44.665088,POINT (-63.604915 44.665088)
Terra Beata,Agri-food,Business Development Program,5500,Bridgewater,Lunenburg,B0J2C0,2018 - 2019,-64.309889,44.37635,POINT (-64.309889 44.37635)
DBR Resources LTD.,Business Services,Business Development Program,7469,Waverley,Halifax Regional Municipality,B2R1T3,2018 - 2019,-63.598026,44.785742,POINT (-63.598026 44.785742)
Grey Lit Matters Inc,ICT (includes Digital Media),Business Development Program,7560,Halifax,Halifax Regional Municipality,B3P1A8,2018 - 2019,-63.608219,44.630968,POINT (-63.608219 44.630968)
DynaGen Technologies Incorporated,Advanced Manufacturing,Business Development Program,14775,Dartmouth,Halifax Regional Municipality,B3B1W8,2018 - 2019,-63.579683,44.70058,POINT (-63.579683 44.70058)
Classic Fine Foods,Agri-food,Business Development Program,4597,Edwardsville,Cape Breton,B2A4S6,2018 - 2019,-60.22160264,46.15678026,POINT (-60.22160264 46.15678026)
Spark Engagement Inc,Business Services,Business Development Program,15000,Antigonish,Antigonish,B2G2L2,2018 - 2019,-61.944846,45.654903,POINT (-61.944846 45.654903)
Marcato Digital Solutions Inc,ICT (includes Digital Media),Business Development Program,9975,Sydney,Cape Breton,B1P6J1,2018 - 2019,-60.224927,46.083533,POINT (-60.224927 46.083533)
EfficiencyOne Services Inc,Business Services,Business Development Program,2875,Dartmouth,Halifax Regional Municipality,B3B1G5,2018 - 2019,-63.605171,44.69816,POINT (-63.605171 44.69816)
3231974 NOVA SCOTIA LIMITED o/a Do Lobster,Fish & Seafood Processing,Business Development Program,7250,Eastern Passage,Halifax Regional Municipality,B3G1M4,2018 - 2019,-63.494322,44.612474,POINT (-63.494322 44.612474)
Bereda Training Inc.,ICT (includes Digital Media),Business Development Program,15000,Halifax,Halifax Regional Municipality,B3J3K5,2018 - 2019,-63.572554,44.644489,POINT (-63.572554 44.644489)
Iris Booth Incorporated,Business Services,Business Development Program,8000,Halifax,Halifax Regional Municipality,B3K2Z8,2018 - 2019,-63.581653,44.651755,POINT (-63.581653 44.651755)
Densitas Inc,ICT (includes Digital Media),Business Development Program,15000,Halifax,Halifax Regional Municipality,B3H3Z1,2018 - 2019,-63.59645,44.637136,POINT (-63.59645 44.637136)
Atlantic Sea Cucumber Ltd,Fish & Seafood Processing,Business Development Program,15000,Hacketts Cove,Halifax Regional Municipality,B3Z3K7,2018 - 2019,-63.757708,44.662435,POINT (-63.757708 44.662435)
Rx Security Inc.,Advanced Manufacturing,Business Development Program,15000,Bedford,Halifax Regional Municipality,B4A2T3,2018 - 2019,-63.646705,44.737949,POINT (-63.646705 44.737949)
Tangled Garden,Agri-food,Business Development Program,5700,Grand Pre,Kings,B0P1M0,2018 - 2019,-64.285653,45.095031,POINT (-64.285653 45.095031)
Advanced Glazings Ltd,Advanced Manufacturing,Business Development Program,15000,Sydney,Cape Breton,B1P6R7,2018 - 2019,-60.19332,46.143671,POINT (-60.19332 46.143671)
Benjamin Bridge Vineyards,Agri-food,Business Development Program,6000,Wolfville,Kings,B4P2R1,2018 - 2019,-64.403589,45.013938,POINT (-64.403589 45.013938)
Rotofast Inc,Advanced Manufacturing,Business Development Program,9075,Cape Breton,Cape Breton,B1P4L8,2018 - 2019,-60.183097,46.129316,POINT (-60.183097 46.129316)
Novate Systems Inc.,Engineering & Professional,Business Development Program,7000,Dartmouth,Halifax Regional Municipality,B3B1P7,2018 - 2019,-63.61637086,44.70527104,POINT (-63.61637086 44.70527104)
Safety Made Easy Basic Training,Business Services,Business Development Program,4250,New Glasgow,Pictou,B2H2B9,2018 - 2019,-62.655446,45.58971,POINT (-62.655446 45.58971)
Allendale Electronics Ltd,Advanced Manufacturing,Business Development Program,12306,Lockeport,Shelburne,B0T1L0,2018 - 2019,-65.12347,43.71839,POINT (-65.12347 43.71839)
Bend Beauty Inc.,Life Sciences,Business Development Program,15000,Halifax,Halifax Regional Municipality,B3J1C7,2018 - 2019,-63.577291,44.639639,POINT (-63.577291 44.639639)
MindSea Development Incorporated,ICT (includes Digital Media),Business Development Program,25000,Halifax,Halifax Regional Municipality,B3J3M8,2018 - 2019,-63.5727,44.647395,POINT (-63.5727 44.647395)
Just Us! Coffee Roasters Co-op Ltd,Agri-food,Business Development Program,2500,Wolfville,Kings,B4P2R3,2018 - 2019,-64.348807,45.068884,POINT (-64.348807 45.068884)
Site 2020 Inc.,ICT (includes Digital Media),Business Development Program,25000,Dartmouth,Halifax Regional Municipality,B3B1L3,2018 - 2019,-63.595664,44.704755,POINT (-63.595664 44.704755)
Athletigen Technologies Inc,Life Sciences,Business Development Program,25000,Halifax,Halifax Regional Municipality,B3J1G1,2018 - 2019,-63.57539255,44.64341829,POINT (-63.57539255 44.64341829)
Spring Loaded Technology Incorporated,Life Sciences,Business Development Program,25000,Halifax,Halifax Regional Municipality,B3K1P5,2018 - 2019,-63.596475,44.653518,POINT (-63.596475 44.653518)
Ashored Inc.,Oceans Technology,EDP2,20000,Bedford,Halifax Regional Municipality,B4A 2T3,2021 - 2022,-63.647648,44.737674,POINT (-63.647648 44.737674)
Boondoc Technologies Inc (The Rounds),ICT (includes Digital Media),Business Development Program,8063,Halifax,Halifax Regional Municipality,B3K4X5,2018 - 2019,-63.611268,44.662185,POINT (-63.611268 44.662185)
Dragon Veterinary Canada Limited,ICT (includes Digital Media),Business Development Program,15000,Bedford,Halifax Regional Municipality,B4A1H4,2018 - 2019,-63.674559,44.711731,POINT (-63.674559 44.711731)
The 7 Virtues Beauty Inc,Advanced Manufacturing,Business Development Program,15000,Halifax,Halifax Regional Municipality,B3H1B1,2018 - 2019,-63.574296,44.624597,POINT (-63.574296 44.624597)
902HipHop Inc.,ICT (includes Digital Media),Business Development Program,15000,Halifax,Halifax Regional Municipality,B3K4N7,2018 - 2019,-63.594931,44.654736,POINT (-63.594931 44.654736)
Sales Beacon,ICT (includes Digital Media),Business Development Program,6000,Brooklyn,Lunenburg,B0J1H0,2018 - 2019,-64.710851,44.055473,POINT (-64.710851 44.055473)
MetOcean Telematics Limited,Oceans Technology,Business Development Program,24750,Dartmouth,Halifax Regional Municipality,B3B1R9,2018 - 2019,-63.595049,44.699403,POINT (-63.595049 44.699403)
Peace by Chocolate Inc.,Agri-food,Business Development Program,15000,Antigonish,Antigonish,B2G2G8,2018 - 2019,-61.97936724,45.62856001,POINT (-61.97936724 45.62856001)
Blue Harbour Cheese Incorporated,Agri-food,Business Development Program,3750,Halifax,Halifax Regional Municipality,B3K4S7,2018 - 2019,-63.611255,44.665687,POINT (-63.611255 44.665687)
Novonix Battery Testing Services Inc,Energy,Business Development Program,15000,Bedford,Halifax Regional Municipality,B4B1H1,2018 - 2019,-63.710231,44.722456,POINT (-63.710231 44.722456)
InnovaSea Marine Systems Canada Inc DBA Vemco,ICT (includes Digital Media),Business Development Program,15000,Hammonds Plains,Halifax Regional Municipality,B4B1L9,2018 - 2019,-63.754376,44.700635,POINT (-63.754376 44.700635)
Current Studios Inc,ICT (includes Digital Media),Export Growth Program,8713,Halifax,Halifax Regional Municipality,B3J3X8,2018 - 2019,-63.576767,44.64669,POINT (-63.576767 44.64669)
Live Stor Sydney Limited,Business Services,Export Growth Program,1730,Sydney,Cape Breton,B1L1B8,2018 - 2019,-60.23984215,46.12185596,POINT (-60.23984215 46.12185596)
R&G Strategic Inc,Business Services,Export Growth Program,3375,Halifax,Halifax Regional Municipality,B3K5J7,2018 - 2019,-63.59056367,44.64722055,POINT (-63.59056367 44.64722055)
Scope Digital Media,Film Production,Export Growth Program,1718,Antigonish,Antigonish,B2G2K8,2018 - 2019,-62.101446,45.551584,POINT (-62.101446 45.551584)
Skye Larke Productions Limited,Film Production,Export Growth Program,5175,River John,Pictou,B0K1N0,2018 - 2019,-63.041939,45.747988,POINT (-63.041939 45.747988)
Talem Health Analytics Inc,Life Sciences,Export Growth Program,4150,Sydney,Cape Breton,B1R1L8,2018 - 2019,-60.218301,46.14076562,POINT (-60.218301 46.14076562)
Digital Cinema Labs Inc.,Film Production,Export Growth Program,1600,Halifax,Halifax Regional Municipality,B3H2V1,2018 - 2019,-63.573651,44.632871,POINT (-63.573651 44.632871)
Grey Lit Matters Inc,ICT (includes Digital Media),Export Growth Program,875,Halifax,Halifax Regional Municipality,B3P1A8,2018 - 2019,-63.608219,44.630968,POINT (-63.608219 44.630968)
Roswall Development Incorporated,Energy,Export Growth Program,9200,Halifax,Halifax Regional Municipality,B3M2L3,2018 - 2019,-63.66099,44.683287,POINT (-63.66099 44.683287)
EcoPilot Canada Inc.,Engineering & Professional,Export Growth Program,5520,Halifax,Halifax Regional Municipality,B3J3L7,2018 - 2019,-63.575048,44.649083,POINT (-63.575048 44.649083)
Made with Local Snack Foods Inc.,Agri-food,Export Growth Program,500,Dartmouth,Halifax Regional Municipality,B2Y2V9,2018 - 2019,-63.568797,44.669949,POINT (-63.568797 44.669949)
"Accomplice Content Supply Co., Inc.",Film Production,Export Growth Program,5418,Halifax,Halifax Regional Municipality,B3K4C6,2018 - 2019,-63.593146,44.655027,POINT (-63.593146 44.655027)
Beyond Food Inc.,Agri-food,Export Growth Program,4717,Dartmouth,Halifax Regional Municipality,B3B1W2,2018 - 2019,-63.580528,44.698469,POINT (-63.580528 44.698469)
Chain-Yard Cider Inc,Agri-food,Export Growth Program,2209,Halifax,Halifax Regional Municipality,B3K4C8,2018 - 2019,-63.593851,44.655519,POINT (-63.593851 44.655519)
Content Bloom Inc,ICT (includes Digital Media),Export Growth Program,2105,Bedford,Halifax Regional Municipality,B4A1C6,2018 - 2019,-63.669301,44.724611,POINT (-63.669301 44.724611)
East Coast School of Languages (ECSL),Business Services,Export Growth Program,7206,Halifax,Halifax Regional Municipality,B3J1V6,2018 - 2019,-63.571891,44.646015,POINT (-63.571891 44.646015)
Eli Technology,ICT (includes Digital Media),Export Growth Program,15000,Halifax,Halifax Regional Municipality,B3H2R9,2018 - 2019,-63.573015,44.636975,POINT (-63.573015 44.636975)
GeoNavo Positioning Systems Inc,ICT (includes Digital Media),Export Growth Program,7350,Hammonds Plains,Halifax Regional Municipality,B4B2B8,2018 - 2019,-63.800164,44.734087,POINT (-63.800164 44.734087)
InterTalk Critical Information Systems Inc,ICT (includes Digital Media),Export Growth Program,15939,Dartmouth,Halifax Regional Municipality,B3B1J4,2018 - 2019,-63.611144,44.704132,POINT (-63.611144 44.704132)
Jaza Energy Inc.,Energy,Export Growth Program,15650,Halifax,Halifax Regional Municipality,B3L1Y9,2018 - 2019,-63.606168,44.655819,POINT (-63.606168 44.655819)
Just Us! Coffee Roasters Co-op Ltd,Agri-food,Export Growth Program,4051,Wolfville,Kings,B4P2R3,2018 - 2019,-64.348807,45.068884,POINT (-64.348807 45.068884)
Kula Partners Inc.,Business Services,Export Growth Program,1665,Halifax,Halifax Regional Municipality,B3J3X8,2018 - 2019,-63.576767,44.64669,POINT (-63.576767 44.64669)
Lisa Young Lee Inc.,Creative Industries,Export Growth Program,3350,North Sydney,Cape Breton,B2A2S1,2018 - 2019,-60.251151,46.208616,POINT (-60.251151 46.208616)
McFadgen's Bakery Limited,Agri-food,Export Growth Program,507,Glace Bay,Cape Breton,B1A3V6,2018 - 2019,-59.95500857,46.20367769,POINT (-59.95500857 46.20367769)
Mercator Geological Services Limited,Mining & Mineral Products,Export Growth Program,2187,Dartmouth,Halifax Regional Municipality,B2Y1G4,2018 - 2019,-63.566451,44.666973,POINT (-63.566451 44.666973)
Mobia Technology Innovations,ICT (includes Digital Media),Export Growth Program,25000,Dartmouth,Halifax Regional Municipality,B3B0B3,2018 - 2019,-63.591479,44.7091,POINT (-63.591479 44.7091)
Pictou Twist Pictures Inc,Film Production,Export Growth Program,5575,Halifax,Halifax Regional Municipality,B3J1J7,2018 - 2019,-63.573178,44.645217,POINT (-63.573178 44.645217)
PitchPerfect Software Inc. operating as Proposify,ICT (includes Digital Media),Export Growth Program,25000,Halifax,Halifax Regional Municipality,B3J2A2,2018 - 2019,-63.573726,44.646512,POINT (-63.573726 44.646512)
RIMOT.IO Inc,ICT (includes Digital Media),Export Growth Program,2533,Dartmouth,Halifax Regional Municipality,B2Y4M9,2018 - 2019,-63.542698,44.660305,POINT (-63.542698 44.660305)
Sand To Sky Productions,Film Production,Export Growth Program,3287,Blind Bay,Halifax Regional Municipality,B3Z1M2,2018 - 2019,-63.757708,44.662427,POINT (-63.757708 44.662427)
Seafoam Lavender Company,Agri-food,Export Growth Program,1240,River John,Pictou,B0K1N0,2018 - 2019,-63.041939,45.747988,POINT (-63.041939 45.747988)
Shift,Business Services,Export Growth Program,1300,Head Of St Margarets Bay,Halifax Regional Municipality,B3Z1X8,2018 - 2019,-63.919943,44.680846,POINT (-63.919943 44.680846)
Site 2020 Inc.,ICT (includes Digital Media),Export Growth Program,7050,Dartmouth,Halifax Regional Municipality,B3B1L3,2018 - 2019,-63.595664,44.704755,POINT (-63.595664 44.704755)
Steinhart Distillery Limited,Agri-food,Export Growth Program,5550,Antigonish,Antigonish,B2G2L1,2018 - 2019,-62.155396,45.566847,POINT (-62.155396 45.566847)
Synclavier Digital Corporation Ltd.,ICT (includes Digital Media),Export Growth Program,2382,D'Escousse,Cape Breton,B0E1K0,2018 - 2019,-61.010749,45.53269,POINT (-61.010749 45.53269)
Ultra Electronics Maritime Systems,Advanced Manufacturing,Export Growth Program,1662,Dartmouth,Halifax Regional Municipality,B2Y4N2,2018 - 2019,-63.545652,44.649583,POINT (-63.545652 44.649583)
Waterstar Entertainment Inc.,Film Production,Export Growth Program,3412,Halifax,Halifax Regional Municipality,B3H2V2,2018 - 2019,-63.573653,44.632873,POINT (-63.573653 44.632873)
Waycobah Contracting Incorporated,Fish & Seafood Processing,Export Growth Program,1730,Whycocomagh,Inverness,B0E3M0,2018 - 2019,-60.965235,46.081461,POINT (-60.965235 46.081461)
Afishionado Fish Mongers Inc,Fish & Seafood Processing,Export Growth Program,6132,Bedford,Halifax Regional Municipality,B4A4J8,2018 - 2019,-63.653467,44.723596,POINT (-63.653467 44.723596)
Bluedrop Training & Simulation Inc.,Aerospace & Defence,Export Growth Program,2192,Halifax,Halifax Regional Municipality,B3S1N2,2018 - 2019,-63.669584,44.656068,POINT (-63.669584 44.656068)
Compass Distillers,Agri-food,Export Growth Program,1027,Halifax,Halifax Regional Municipality,B3K4C4,2018 - 2019,-63.592367,44.654497,POINT (-63.592367 44.654497)
Fourth State Energy Incorporated,Energy,Export Growth Program,15000,Halifax,Halifax Regional Municipality,B3J2L4,2018 - 2019,-63.632286,44.654755,POINT (-63.632286 44.654755)
Iris Booth Incorporated,Business Services,Export Growth Program,7100,Halifax,Halifax Regional Municipality,B3K2Z8,2018 - 2019,-63.581653,44.651755,POINT (-63.581653 44.651755)
Keeping Roads Safe Technologies Inc,ICT (includes Digital Media),Export Growth Program,6400,Bedford,Halifax Regional Municipality,B4B1H1,2018 - 2019,-63.710231,44.722456,POINT (-63.710231 44.722456)
Muwin Estate Wines Ltd,Agri-food,Export Growth Program,4850,New Ross,Lunenburg,B0J2M0,2018 - 2019,-63.916747,44.706544,POINT (-63.916747 44.706544)
The Soap Company of Nova Scotia Ltd,Advanced Manufacturing,Export Growth Program,1800,Sherbrooke,Guysborough,B0J3C0,2018 - 2019,-62.026841,45.193706,POINT (-62.026841 45.193706)
Topsail Productions Ltd.,Film Production,Export Growth Program,2500,Halifax,Halifax Regional Municipality,B3J1J7,2018 - 2019,-63.573178,44.645217,POINT (-63.573178 44.645217)
2 Crows Brewing Ltd,Agri-food,Export Growth Program,2775,Halifax,Halifax Regional Municipality,B3J2G7,2018 - 2019,-63.578146,44.649349,POINT (-63.578146 44.649349)
Baie Run Pet Products Inc,Agri-food,Export Growth Program,5212,Halifax,Halifax Regional Municipality,B3J3N2,2018 - 2019,-63.57606155,44.65201157,POINT (-63.57606155 44.65201157)
Cartoon Conrad Productions Inc,ICT (includes Digital Media),Export Growth Program,8411,Beaver Bank,Halifax Regional Municipality,B4G1C5,2018 - 2019,-63.691467,44.853799,POINT (-63.691467 44.853799)
Fit First Holdings Inc.,Business Services,Export Growth Program,5050,Dartmouth,Halifax Regional Municipality,B3B1X2,2018 - 2019,-63.595848,44.710189,POINT (-63.595848 44.710189)
Imaginal Ventures Inc.,Engineering & Professional,Export Growth Program,794,Halifax,Halifax Regional Municipality,B3K5T9,2018 - 2019,-63.590281,44.662753,POINT (-63.590281 44.662753)
JusNova Agriculture Ltd,Agri-food,Export Growth Program,3550,Halifax,Halifax Regional Municipality,B3M1N1,2018 - 2019,-63.641789,44.66397,POINT (-63.641789 44.66397)
Skinfix Inc,Advanced Manufacturing,Export Growth Program,15000,Halifax,Halifax Regional Municipality,B3J1R9,2018 - 2019,-63.570552,44.645084,POINT (-63.570552 44.645084)
Stark International Inc,Energy,Export Growth Program,2000,New Glasgow,Pictou,B2H2T3,2018 - 2019,-62.6438518,45.58895964,POINT (-62.6438518 45.58895964)
Stratigro Business Consulting,Business Services,Export Growth Program,2775,Meteghan,Digby,B0W2J0,2018 - 2019,-66.258852,44.158134,POINT (-66.258852 44.158134)
4Deep Inwater Imaging,Oceans Technology,Export Growth Program,1800,Halifax,Halifax Regional Municipality,B4B1G2,2018 - 2019,-63.741086,44.724533,POINT (-63.741086 44.724533)
Blois Fish Processing Automation Limited,Fish & Seafood Processing,Export Growth Program,850,Dartmouth,Halifax Regional Municipality,B2V2S7,2018 - 2019,-63.476576,44.653288,POINT (-63.476576 44.653288)
Maritime Gourmet Mushrooms Inc,Agri-food,Export Growth Program,2202,Halifax,Halifax Regional Municipality,B3M3Y8,2018 - 2019,-63.667551,44.676453,POINT (-63.667551 44.676453)
Steinhart Distillery Limited,Agri-food,Export Growth Program,1175,Antigonish,Antigonish,B2G2L1,2018 - 2019,-62.155396,45.566847,POINT (-62.155396 45.566847)
Ven-Rez Products Ltd,Advanced Manufacturing,Export Growth Program,3492,Shelburne,Shelburne,B0T1W0,2018 - 2019,-65.41816,43.66134,POINT (-65.41816 43.66134)
Atlantic Flight Attendant Academy,Business Services,Export Growth Program,3000,Halifax,Halifax Regional Municipality,B3H3Y4,2018 - 2019,-63.593557,44.632239,POINT (-63.593557 44.632239)
Breton Brewing Co,Agri-food,Export Growth Program,3000,Sydney,Cape Breton,B1R1V7,2018 - 2019,-60.229829,46.116106,POINT (-60.229829 46.116106)
Lunenburg County Shipwrights Inc.,Advanced Manufacturing,Export Growth Program,2278,Bridgewater,Lunenburg,B0J2C0,2018 - 2019,-64.309889,44.37635,POINT (-64.309889 44.37635)
Raised Performance Media Inc.,Business Services,Export Growth Program,3662,Halifax,Halifax Regional Municipality,B3J2A4,2018 - 2019,-63.574131,44.647278,POINT (-63.574131 44.647278)
SalesRight Technologies Inc,ICT (includes Digital Media),Export Growth Program,750,Halifax,Halifax Regional Municipality,B3J3K5,2018 - 2019,-63.572554,44.644489,POINT (-63.572554 44.644489)
Sayle Group Inc,Business Services,Export Growth Program,4925,Hammonds Plains,Halifax Regional Municipality,B4B1W8,2018 - 2019,-63.777975,44.757498,POINT (-63.777975 44.757498)
Youx Systems Inc.,ICT (includes Digital Media),Export Growth Program,512,Halifax,Halifax Regional Municipality,B3S1N5,2018 - 2019,-63.67319911,44.66025623,POINT (-63.67319911 44.66025623)
6 Joe's Software Inc.,ICT (includes Digital Media),Export Growth Program,11000,Halifax,Halifax Regional Municipality,B3J3K5,2018 - 2019,-63.572554,44.644489,POINT (-63.572554 44.644489)
Barrelling Tide Distillery,Agri-food,Export Growth Program,1700,Port Williams,Kings,B0P1T0,2018 - 2019,-64.362715,45.159695,POINT (-64.362715 45.159695)
Downeast Entertainment & Meeting Specialists Limited,Business Services,Export Growth Program,7359,Halifax,Halifax Regional Municipality,B3J3K8,2018 - 2019,-63.57472,44.648408,POINT (-63.57472 44.648408)
Hand Maiden Fine Yarn Inc.,Clothing & Textiles,Export Growth Program,3551,Halifax,Halifax Regional Municipality,B3K4E8,2018 - 2019,-63.598985,44.659252,POINT (-63.598985 44.659252)
Maritime bioLoggers Inc.,Oceans Technology,Export Growth Program,2318,Dartmouth,Halifax Regional Municipality,B2Y2W1,2018 - 2019,-63.56358,44.667535,POINT (-63.56358 44.667535)
Momentum IT Group,ICT (includes Digital Media),Export Growth Program,4572,Halifax,Halifax Regional Municipality,B3J1Y2,2018 - 2019,-63.570421,44.64012,POINT (-63.570421 44.64012)
New Colliers Ltd,Energy,Export Growth Program,545,Waverley,Halifax Regional Municipality,B2R1H2,2018 - 2019,-63.58709433,44.77831405,POINT (-63.58709433 44.77831405)
Pelagis Data Solutions,Oceans Technology,Export Growth Program,1050,Point Edward,Cape Breton,B2A4R2,2018 - 2019,-60.276693,46.162688,POINT (-60.276693 46.162688)
Roswall Development Incorporated,Energy,Export Growth Program,3100,Halifax,Halifax Regional Municipality,B3M2L3,2018 - 2019,-63.66099,44.683287,POINT (-63.66099 44.683287)
Ziah Frost Media Inc.,Film Production,Export Growth Program,4315,Halifax,Halifax Regional Municipality,B3M1B9,2018 - 2019,-63.650476,44.652447,POINT (-63.650476 44.652447)
Breakers Fish Co Ltd,Fish & Seafood Processing,Export Growth Program,3500,Halifax,Halifax Regional Municipality,B3L2C2,2018 - 2019,-63.627898,44.653612,POINT (-63.627898 44.653612)
FoodByte Inc,ICT (includes Digital Media),Export Growth Program,850,Wolfville,Kings,B4P2R6,2018 - 2019,-64.36820119,45.0890494,POINT (-64.36820119 45.0890494)
Foundation Marketing Services Inc.,Business Services,Export Growth Program,5605,Halifax,Halifax Regional Municipality,B3M4C5,2018 - 2019,-63.635894,44.661222,POINT (-63.635894 44.661222)
Graphite Innovation and Technologies Inc.,Advanced Manufacturing,Export Growth Program,2900,Dartmouth,Halifax Regional Municipality,B2Y4M9,2018 - 2019,-63.542698,44.660305,POINT (-63.542698 44.660305)
Mimir Networks Corporation,ICT (includes Digital Media),Export Growth Program,9475,Sydney,Cape Breton,B1P1V2,2018 - 2019,-60.19056497,46.1362829,POINT (-60.19056497 46.1362829)
Portara Pictures Incorporated,Film Production,Export Growth Program,4983,Duncan Cove,Halifax Regional Municipality,B3V1K4,2018 - 2019,-63.788549,44.713309,POINT (-63.788549 44.713309)
Securicy Data Solutions Ltd,ICT (includes Digital Media),Export Growth Program,3114,Sydney,Cape Breton,B1P1C6,2018 - 2019,-60.19501343,46.13911828,POINT (-60.19501343 46.13911828)
Sedna Tech,Oceans Technology,Export Growth Program,2750,Dartmouth,Halifax Regional Municipality,B2Y2W1,2018 - 2019,-63.56358,44.667535,POINT (-63.56358 44.667535)
Steinhart Distillery Limited,Agri-food,Export Growth Program,2100,Antigonish,Antigonish,B2G2L1,2018 - 2019,-62.155396,45.566847,POINT (-62.155396 45.566847)
Strongest Families Institute,Business Services,Export Growth Program,3423,Lower Sackville,Halifax Regional Municipality,B4C4E6,2018 - 2019,-63.65843038,44.7606098,POINT (-63.65843038 44.7606098)
Success Through Trust Inc,Business Services,Export Growth Program,3125,Halifax,Halifax Regional Municipality,B3L2H3,2018 - 2019,-63.626126,44.648102,POINT (-63.626126 44.648102)
Deprolabs Technology Inc.,ICT (includes Digital Media),Export Growth Program,2800,Halifax,Halifax Regional Municipality,B3S1G5,2018 - 2019,-63.673695,44.672237,POINT (-63.673695 44.672237)
Dominion Diving Limited,Oceans Technology,Export Growth Program,8650,Dartmouth,Halifax Regional Municipality,B2Y2W1,2018 - 2019,-63.56358,44.667535,POINT (-63.56358 44.667535)
Festina Lente Productions Inc.,Film Production,Export Growth Program,900,Chester,Lunenburg,B0J1J0,2018 - 2019,-64.225079,44.560562,POINT (-64.225079 44.560562)
Focal Research Consultants Limited,Business Services,Export Growth Program,8629,Halifax,Halifax Regional Municipality,B3L2C2,2018 - 2019,-63.627898,44.653612,POINT (-63.627898 44.653612)
Harbr Inc.,ICT (includes Digital Media),Export Growth Program,15000,Halifax,Halifax Regional Municipality,B3J3K5,2018 - 2019,-63.572554,44.644489,POINT (-63.572554 44.644489)
Leeway Yachts Ltd.,Oceans Technology,Export Growth Program,2367,Dartmouth,Halifax Regional Municipality,B2Y4T5,2018 - 2019,-63.556475,44.661861,POINT (-63.556475 44.661861)
NS Sports Media Pros Ltd,ICT (includes Digital Media),Export Growth Program,7125,Halifax,Halifax Regional Municipality,B3S0B9,2018 - 2019,-63.6851302,44.658753,POINT (-63.6851302 44.658753)
Prosaris Consulting Ltd.,Business Services,Export Growth Program,10452,Hammonds Plains,Halifax Regional Municipality,B4B1P4,2018 - 2019,-63.756573,44.731435,POINT (-63.756573 44.731435)
QRA Corp,ICT (includes Digital Media),Export Growth Program,4425,Halifax,Halifax Regional Municipality,B3K5L2,2018 - 2019,-63.602819,44.659309,POINT (-63.602819 44.659309)
Riverside Lobster International Inc,Fish & Seafood Processing,Export Growth Program,4535,Meteghan,Digby,B0W2J0,2018 - 2019,-66.258852,44.158134,POINT (-66.258852 44.158134)
SalesRight Technologies Inc,ICT (includes Digital Media),Export Growth Program,2650,Halifax,Halifax Regional Municipality,B3J3K5,2018 - 2019,-63.572554,44.644489,POINT (-63.572554 44.644489)
Peer Ledger Inc,ICT (includes Digital Media),Export Growth Program,12118,Halifax,Halifax Regional Municipality,B3H4P3,2018 - 2019,-63.572337,44.63221,POINT (-63.572337 44.63221)
Acoubit Communications,Oceans Technology,Export Growth Program,1390,Dartmouth,Halifax Regional Municipality,B2Y2W1,2018 - 2019,-63.56358,44.667535,POINT (-63.56358 44.667535)
Classic Fine Foods,Agri-food,Export Growth Program,1790,Edwardsville,Cape Breton,B2A4S6,2018 - 2019,-60.22160264,46.15678026,POINT (-60.22160264 46.15678026)
Site 2020 Inc.,ICT (includes Digital Media),Export Growth Program,10025,Dartmouth,Halifax Regional Municipality,B3B1L3,2018 - 2019,-63.595664,44.704755,POINT (-63.595664 44.704755)
Meghan Martin Incorporated,Business Services,Export Growth Program,10800,Dartmouth,Halifax Regional Municipality,B3A2L3,2018 - 2019,-63.563871,44.674896,POINT (-63.563871 44.674896)
MRE Industries Limited,Energy,Export Growth Program,520,Dartmouth,Halifax Regional Municipality,B3B1N7,2018 - 2019,-63.601539,44.716471,POINT (-63.601539 44.716471)
Nova Graphene,Oceans Technology,Export Growth Program,6038,Dartmouth,Halifax Regional Municipality,B2Y4T5,2018 - 2019,-63.556475,44.661861,POINT (-63.556475 44.661861)
PeopleCan Training & Development,Business Services,Export Growth Program,829,Lower Sackville,Halifax Regional Municipality,B4C2S3,2018 - 2019,-63.68483351,44.76785324,POINT (-63.68483351 44.76785324)
Spark Engagement Inc,Business Services,Export Growth Program,12941,Antigonish,Antigonish,B2G2L2,2018 - 2019,-61.944846,45.654903,POINT (-61.944846 45.654903)
World Link Food Distributors Inc,Fish & Seafood Processing,Export Growth Program,14125,Enfield,Halifax Regional Municipality,B2T1K3,2018 - 2019,-63.52380855,44.8796973,POINT (-63.52380855 44.8796973)
CacheFlo Inc.,Business Services,Export Growth Program,6687,Halifax,Halifax Regional Municipality,B3J3J8,2018 - 2019,-63.57894264,44.65095794,POINT (-63.57894264 44.65095794)
Cove Kombucha,Agri-food,Export Growth Program,1500,Halifax,Halifax Regional Municipality,B3J2J9,2018 - 2019,-63.576924,44.640981,POINT (-63.576924 44.640981)
Dormie Golf Workshop Inc.,Advanced Manufacturing,Export Growth Program,13800,Halifax,Halifax Regional Municipality,B3K2Y3,2018 - 2019,-63.590301,44.660963,POINT (-63.590301 44.660963)
Guild Software Inc,Business Services,Export Growth Program,3290,Bedford,Halifax Regional Municipality,B4A1E6,2018 - 2019,-63.657959,44.731599,POINT (-63.657959 44.731599)
Nodalblock Canada Holdings Inc.,ICT (includes Digital Media),Export Growth Program,7100,Halifax,Halifax Regional Municipality,B3J3N2,2018 - 2019,-63.57606155,44.65201157,POINT (-63.57606155 44.65201157)
Novate Systems Inc.,Engineering & Professional,Export Growth Program,4213,Dartmouth,Halifax Regional Municipality,B3B1P7,2018 - 2019,-63.61637086,44.70527104,POINT (-63.61637086 44.70527104)
Panag Pharma Inc.,Life Sciences,Export Growth Program,1621,Halifax,Halifax Regional Municipality,B3J3R7,2018 - 2019,-63.57614729,44.65208895,POINT (-63.57614729 44.65208895)
Stratigro Business Consulting,Business Services,Export Growth Program,1000,Meteghan,Digby,B0W2J0,2018 - 2019,-66.258852,44.158134,POINT (-66.258852 44.158134)
Ubique Networks Inc,ICT (includes Digital Media),Export Growth Program,12975,Sydney,Cape Breton,B1P1J7,2018 - 2019,-60.19367434,46.14157268,POINT (-60.19367434 46.14157268)
Clerisy Management Group Limited,Film Production,Export Growth Program,7352,Dartmouth,Halifax Regional Municipality,B3B1W9,2018 - 2019,-63.579685,44.69696,POINT (-63.579685 44.69696)
Dadavan Systems Inc,ICT (includes Digital Media),Export Growth Program,710,Waverley,Halifax Regional Municipality,B2R1R7,2018 - 2019,-63.60008607,44.78239155,POINT (-63.60008607 44.78239155)
Dominion Diving Limited,Oceans Technology,Export Growth Program,4200,Dartmouth,Halifax Regional Municipality,B2Y2W1,2018 - 2019,-63.56358,44.667535,POINT (-63.56358 44.667535)
East Coast Varsity,Business Services,Export Growth Program,7185,Dartmouth,Halifax Regional Municipality,B2W6L4,2018 - 2019,-63.532147,44.670365,POINT (-63.532147 44.670365)
Hivetronics Limited,Agri-food,Export Growth Program,450,Dartmouth,Halifax Regional Municipality,B2W4Z3,2018 - 2019,-63.503976,44.686741,POINT (-63.503976 44.686741)
MetOcean Telematics Limited,Oceans Technology,Export Growth Program,25000,Dartmouth,Halifax Regional Municipality,B3B1R9,2018 - 2019,-63.595049,44.699403,POINT (-63.595049 44.699403)
More In Store Marketing Solutions Inc,Business Services,Export Growth Program,605,Fall River,Halifax Regional Municipality,B2T1J6,2018 - 2019,-63.599837,44.805489,POINT (-63.599837 44.805489)
NewAE Technology Inc.,Aerospace & Defence,Export Growth Program,7465,Halifax,Halifax Regional Municipality,B3H2R8,2018 - 2019,-63.572766,44.637045,POINT (-63.572766 44.637045)
Novonix Battery Testing Services Inc,Energy,Export Growth Program,16572,Bedford,Halifax Regional Municipality,B4B1H1,2018 - 2019,-63.710231,44.722456,POINT (-63.710231 44.722456)
RIMOT.IO Inc,ICT (includes Digital Media),Export Growth Program,10999,Dartmouth,Halifax Regional Municipality,B2Y4M9,2018 - 2019,-63.542698,44.660305,POINT (-63.542698 44.660305)
SolutionInc Ltd,ICT (includes Digital Media),Export Growth Program,5255,Halifax,Halifax Regional Municipality,B3K1T2,2018 - 2019,-63.595928,44.658385,POINT (-63.595928 44.658385)
Chase's Lobster Pound Ltd,Agri-food,Export Growth Program,14000,Port Howe,Cumberland,B0K1K0,2018 - 2019,-63.849946,45.810472,POINT (-63.849946 45.810472)
Eyeread Inc.,ICT (includes Digital Media),Export Growth Program,11275,Dartmouth,Halifax Regional Municipality,B3B1E8,2018 - 2019,-63.613528,44.694128,POINT (-63.613528 44.694128)
Sedna Tech,Oceans Technology,Export Growth Program,6000,Dartmouth,Halifax Regional Municipality,B2Y2W1,2018 - 2019,-63.56358,44.667535,POINT (-63.56358 44.667535)
Survival Systems Ltd,Oceans Technology,Export Growth Program,5319,Dartmouth,Halifax Regional Municipality,B2Y4W6,2018 - 2019,-63.539046,44.6562,POINT (-63.539046 44.6562)
Two East Productions Inc.,Film Production,Export Growth Program,647,Chester,Halifax Regional Municipality,B0J1J0,2018 - 2019,-64.225079,44.560562,POINT (-64.225079 44.560562)
Deep Vision Inc,ICT (includes Digital Media),Export Growth Program,2967,Dartmouth,Halifax Regional Municipality,B2Y4P5,2018 - 2019,-63.569266,44.665864,POINT (-63.569266 44.665864)
DGI Clinical Inc.,Life Sciences,Export Growth Program,2092,Halifax,Halifax Regional Municipality,B3J2E3,2018 - 2019,-63.576047,44.646813,POINT (-63.576047 44.646813)
Du Nord Skin Care,Advanced Manufacturing,Export Growth Program,7981,Ketch Harbour,Halifax Regional Municipality,B3V1K6,2018 - 2019,-63.543553,44.486785,POINT (-63.543553 44.486785)
GeoNavo Positioning Systems Inc,ICT (includes Digital Media),Export Growth Program,10700,Hammonds Plains,Halifax Regional Municipality,B4B2B8,2018 - 2019,-63.800164,44.734087,POINT (-63.800164 44.734087)
Halifax Language Institute of Canada,Business Services,Export Growth Program,14976,Halifax,Halifax Regional Municipality,B3J3M7,2018 - 2019,-63.577974,44.642749,POINT (-63.577974 44.642749)
Meghan Martin Incorporated,Business Services,Export Growth Program,4167,Dartmouth,Halifax Regional Municipality,B3A2L3,2018 - 2019,-63.563871,44.674896,POINT (-63.563871 44.674896)
Nova Graphene,Oceans Technology,Export Growth Program,8925,Dartmouth,Halifax Regional Municipality,B2Y4T5,2018 - 2019,-63.556475,44.661861,POINT (-63.556475 44.661861)
Proven Marketing for Lawyers Inc.,Business Services,Export Growth Program,500,Halifax,Halifax Regional Municipality,B3H4K6,2018 - 2019,-63.578788,44.637258,POINT (-63.578788 44.637258)
Sassy Solutions Consulting Limited,Business Services,Export Growth Program,970,Halifax,Halifax Regional Municipality,B3M3C8,2018 - 2019,-63.652605,44.657547,POINT (-63.652605 44.657547)
Sealand Building Group Inc,Advanced Manufacturing,Export Growth Program,8875,Halifax,Halifax Regional Municipality,B4B1G2,2018 - 2019,-63.741086,44.724533,POINT (-63.741086 44.724533)
Securicy Data Solutions Ltd,ICT (includes Digital Media),Export Growth Program,9924,Sydney,Cape Breton,B1P1C6,2018 - 2019,-60.19501343,46.13911828,POINT (-60.19501343 46.13911828)
Trip Ninja,ICT (includes Digital Media),Export Growth Program,6039,Halifax,Halifax Regional Municipality,B3J2V1,2018 - 2019,-63.645986,44.648416,POINT (-63.645986 44.648416)
Tri-Star Industries Limited,Advanced Manufacturing,Export Growth Program,6600,Yarmouth,Yarmouth,B5A4B4,2018 - 2019,-66.118319,43.842674,POINT (-66.118319 43.842674)
Uprise Consulting,Business Services,Export Growth Program,4118,Halifax,Halifax Regional Municipality,B3L4T7,2018 - 2019,-63.631058,44.653673,POINT (-63.631058 44.653673)
USP-LAB N.A. Ltd.,ICT (includes Digital Media),Export Growth Program,2475,Halifax,Halifax Regional Municipality,B3J3K5,2018 - 2019,-63.572554,44.644489,POINT (-63.572554 44.644489)
AC Live Lobster Inc,Fish & Seafood Processing,Export Growth Program,15000,Clarks Harbour,Shelburne,B0W1P0,2018 - 2019,-65.650454,43.462969,POINT (-65.650454 43.462969)
Beta Glucan Company of Canada Inc.,Life Sciences,Export Growth Program,2300,Halifax,Halifax Regional Municipality,B3H4N3,2018 - 2019,-63.578083,44.629216,POINT (-63.578083 44.629216)
CacheFlo Inc.,Business Services,Export Growth Program,2900,Halifax,Halifax Regional Municipality,B3J3J8,2018 - 2019,-63.57894264,44.65095794,POINT (-63.57894264 44.65095794)
CarbonCure Technologies Inc,Energy,Export Growth Program,13500,Dartmouth,Halifax Regional Municipality,B3B1R6,2018 - 2019,-63.597081,44.704092,POINT (-63.597081 44.704092)
Current Studios Inc,ICT (includes Digital Media),Export Growth Program,3000,Halifax,Halifax Regional Municipality,B3J3X8,2018 - 2019,-63.576767,44.64669,POINT (-63.576767 44.64669)
Giffin Technologies Inc.,Agri-food,Export Growth Program,901,Halifax,Halifax Regional Municipality,B3N1X9,2018 - 2019,-63.628608,44.645863,POINT (-63.628608 44.645863)
Huminah Huminah Animation,ICT (includes Digital Media),Export Growth Program,15000,Dartmouth,Halifax Regional Municipality,B2Y3P2,2018 - 2019,-63.562672,44.669345,POINT (-63.562672 44.669345)
Oyster Promo Inc,Business Services,Export Growth Program,2000,Halifax,Halifax Regional Municipality,B3H3X9,2018 - 2019,-63.587154,44.630259,POINT (-63.587154 44.630259)
Basil Kings Farm Inc.,Agri-food,PIVP,15000,Salmon River,Digby,B5A 5B2,2019 - 2020,-66.161256,44.051386,POINT (-66.161256 44.051386)
Picture Plant Ltd.,Film Production,Export Growth Program,7787,Bridgewater,Lunenburg,B0J2C0,2018 - 2019,-64.309889,44.37635,POINT (-64.309889 44.37635)
Strongest Families Institute,Business Services,Export Growth Program,5588,Lower Sackville,Halifax Regional Municipality,B4C4E6,2018 - 2019,-63.65843038,44.7606098,POINT (-63.65843038 44.7606098)
The Instratify Group Inc.,Business Services,Export Growth Program,3250,Halifax,Halifax Regional Municipality,B3J4A2,2018 - 2019,-63.577842,44.642783,POINT (-63.577842 44.642783)
Access Labels,Advanced Manufacturing,Export Growth Program,1879,Amherst,Cumberland,B4H4E2,2018 - 2019,-63.89274,45.777062,POINT (-63.89274 45.777062)
FoodByte Inc,ICT (includes Digital Media),Export Growth Program,4320,Wolfville,Kings,B4P2R6,2018 - 2019,-64.36820119,45.0890494,POINT (-64.36820119 45.0890494)
Iron Apple,Transportation & Logistics,Export Growth Program,12100,Dartmouth,Halifax Regional Municipality,B3B1V2,2018 - 2019,-63.588236,44.692403,POINT (-63.588236 44.692403)
SailTimer Inc.,ICT (includes Digital Media),Export Growth Program,10343,Tantallon,Halifax Regional Municipality,B3Z2R9,2018 - 2019,-63.911447,44.644713,POINT (-63.911447 44.644713)
Skyline (Refer to Orgrimmar Tech. Inc.),ICT (includes Digital Media),Export Growth Program,4847,Dartmouth,Halifax Regional Municipality,B2Y1E1,2018 - 2019,-63.564563,44.6699,POINT (-63.564563 44.6699)
Survival Systems Training Limited,Oceans Technology,Export Growth Program,13425,Dartmouth,Halifax Regional Municipality,B2Y4K9,2018 - 2019,-63.542555,44.655836,POINT (-63.542555 44.655836)
Ultra Electronics Maritime Systems,Advanced Manufacturing,Export Growth Program,14995,Dartmouth,Halifax Regional Municipality,B2Y4N2,2018 - 2019,-63.545652,44.649583,POINT (-63.545652 44.649583)
East Coast School of Languages (ECSL),Business Services,Export Growth Program,4780,Halifax,Halifax Regional Municipality,B3J1V6,2018 - 2019,-63.571891,44.646015,POINT (-63.571891 44.646015)
Nodalblock Canada Holdings Inc.,ICT (includes Digital Media),Export Growth Program,5400,Halifax,Halifax Regional Municipality,B3J3N2,2018 - 2019,-63.57606155,44.65201157,POINT (-63.57606155 44.65201157)
Pictou Twist Pictures Inc,Film Production,Export Growth Program,5725,Halifax,Halifax Regional Municipality,B3J1J7,2018 - 2019,-63.573178,44.645217,POINT (-63.573178 44.645217)
Proven Marketing for Lawyers Inc.,Business Services,Export Growth Program,995,Halifax,Halifax Regional Municipality,B3H4K6,2018 - 2019,-63.578788,44.637258,POINT (-63.578788 44.637258)
Shift,Business Services,Export Growth Program,1633,Head Of St Margarets Bay,Halifax Regional Municipality,B3Z1X8,2018 - 2019,-63.919943,44.680846,POINT (-63.919943 44.680846)
SolutionInc Ltd,ICT (includes Digital Media),Export Growth Program,1000,Halifax,Halifax Regional Municipality,B3K1T2,2018 - 2019,-63.595928,44.658385,POINT (-63.595928 44.658385)
Victoria Co-Operative Fisheries Ltd,Fish & Seafood Processing,Export Growth Program,5675,Neils Harbour,Victoria,B0C1N0,2018 - 2019,-60.343878,46.762745,POINT (-60.343878 46.762745)
Athletigen Technologies Inc,Life Sciences,Export Growth Program,11925,Halifax,Halifax Regional Municipality,B3J1G1,2018 - 2019,-63.57539255,44.64341829,POINT (-63.57539255 44.64341829)
Chocolate Hackers,Agri-food,Export Growth Program,2285,Halifax,Halifax Regional Municipality,B3K2H7,2018 - 2019,-63.604915,44.665088,POINT (-63.604915 44.665088)
Dugo Systems Inc,ICT (includes Digital Media),Export Growth Program,7600,Halifax,Halifax Regional Municipality,B3J3K5,2018 - 2019,-63.572554,44.644489,POINT (-63.572554 44.644489)
Fit First Holdings Inc.,Business Services,Export Growth Program,6775,Dartmouth,Halifax Regional Municipality,B3B1X2,2018 - 2019,-63.595848,44.710189,POINT (-63.595848 44.710189)
Journeyman Film Company  Ltd.,ICT (includes Digital Media),Export Growth Program,10375,Dartmouth,Halifax Regional Municipality,B2Y2S6,2018 - 2019,-63.566107,44.666248,POINT (-63.566107 44.666248)
Survival Systems Ltd,Oceans Technology,Export Growth Program,3808,Dartmouth,Halifax Regional Municipality,B2Y4W6,2018 - 2019,-63.539046,44.6562,POINT (-63.539046 44.6562)
TapRoot Fibre Lab Inc,Agri-food,Export Growth Program,2050,Port Williams,Kings,B0P1T0,2018 - 2019,-64.362715,45.159695,POINT (-64.362715 45.159695)
Densitas Inc,ICT (includes Digital Media),Export Growth Program,7499,Halifax,Halifax Regional Municipality,B3H3Z1,2018 - 2019,-63.59645,44.637136,POINT (-63.59645 44.637136)
Eel Lake Oyster Farm,Fish & Seafood Processing,Export Growth Program,2400,Ste-Anne-Du-Ruisseau,Yarmouth,B0W2X0,2018 - 2019,-65.951742,43.81874,POINT (-65.951742 43.81874)
MacGregors Industrial Group,Advanced Manufacturing,Export Growth Program,2309,New Glasgow,Pictou,B2H5C7,2018 - 2019,-62.643478,45.586891,POINT (-62.643478 45.586891)
Pivotal Coaching,Business Services,Export Growth Program,4845,Halifax,Halifax Regional Municipality,B3K1G7,2018 - 2019,-63.588554,44.653612,POINT (-63.588554 44.653612)
Raised Performance Media Inc.,Business Services,Export Growth Program,11325,Halifax,Halifax Regional Municipality,B3J2A4,2018 - 2019,-63.574131,44.647278,POINT (-63.574131 44.647278)
Arcadia Entertainment Inc.,Film Production,Export Growth Program,7698,Halifax,Halifax Regional Municipality,B3L1A9,2018 - 2019,-63.601752,44.644087,POINT (-63.601752 44.644087)
Boondoc Technologies Inc (The Rounds),ICT (includes Digital Media),Export Growth Program,10687,Halifax,Halifax Regional Municipality,B3K4X5,2018 - 2019,-63.611268,44.662185,POINT (-63.611268 44.662185)
Burnt Out Solutions Inc,Advanced Manufacturing,Export Growth Program,17100,New Minas,Kings,B4N3N2,2018 - 2019,-64.453388,45.068558,POINT (-64.453388 45.068558)
Cove Kombucha,Agri-food,Export Growth Program,3350,Halifax,Halifax Regional Municipality,B3J2J9,2018 - 2019,-63.576924,44.640981,POINT (-63.576924 44.640981)
Dillon Consulting Ltd.,Business Services,EGP,3089,Halifax,Halifax,B3S 1B3,2019 - 2020,-63.665839,44.6423613,POINT (-63.665839 44.6423613)
EcoAdvisors Inc,Business Services,Export Growth Program,17475,Halifax,Halifax Regional Municipality,B3H3K6,2018 - 2019,-63.590845,44.6435245,POINT (-63.590845 44.6435245)
Stantec,Engineering & Professional,Export Growth Program,12784,Dartmouth,Halifax Regional Municipality,B3A0A4,2018 - 2019,-63.561484,44.689132,POINT (-63.561484 44.689132)
The Instratify Group Inc.,Business Services,Export Growth Program,2500,Halifax,Halifax Regional Municipality,B3J4A2,2018 - 2019,-63.577842,44.642783,POINT (-63.577842 44.642783)
Cartoon Conrad Productions Inc,ICT (includes Digital Media),Export Growth Program,2855,Beaver Bank,Halifax Regional Municipality,B4G1C5,2018 - 2019,-63.691467,44.853799,POINT (-63.691467 44.853799)
Cartoon Conrad Productions Inc,ICT (includes Digital Media),Export Growth Program,1400,Beaver Bank,Halifax Regional Municipality,B4G1C5,2018 - 2019,-63.691467,44.853799,POINT (-63.691467 44.853799)
Dillon Consulting Ltd,Business Services,Export Growth Program,4335,Halifax,Halifax Regional Municipality,B3S1B3,2018 - 2019,-63.663711,44.637971,POINT (-63.663711 44.637971)
McGlone Sales and Consulting,Fish & Seafood Processing,Export Growth Program,2275,Windsor,Hants,B0N2T0,2018 - 2019,-64.318054,44.819594,POINT (-64.318054 44.819594)
Novonix Battery Testing Services Inc,Energy,Export Growth Program,5475,Bedford,Halifax Regional Municipality,B4B1H1,2018 - 2019,-63.710231,44.722456,POINT (-63.710231 44.722456)
Sassy Solutions Consulting Limited,Business Services,Export Growth Program,1665,Halifax,Halifax Regional Municipality,B3M3C8,2018 - 2019,-63.652605,44.657547,POINT (-63.652605 44.657547)
Stright-MacKay Ltd,Business Services,Export Growth Program,2265,New Glasgow,Pictou,B2H5E1,2018 - 2019,-62.638714,45.604452,POINT (-62.638714 45.604452)
AGL Group Holding Limited,Advanced Manufacturing,Export Growth Program,1609,Bridgewater,Lunenburg,B0J2C0,2018 - 2019,-64.309889,44.37635,POINT (-64.309889 44.37635)
Arrivals + Departures Communications Limited,Business Services,Export Growth Program,3445,Halifax,Halifax Regional Municipality,B3J1S9,2018 - 2019,-63.576866,44.652261,POINT (-63.576866 44.652261)
Breton SmarTek Inc,ICT (includes Digital Media),Export Growth Program,3737,Sydney,Cape Breton,B1P6H1,2018 - 2019,-60.224927,46.083532,POINT (-60.224927 46.083532)
Chocolate Hackers,Agri-food,Export Growth Program,2430,Halifax,Halifax Regional Municipality,B3K2H7,2018 - 2019,-63.604915,44.665088,POINT (-63.604915 44.665088)
DynaGen Technologies Incorporated,Advanced Manufacturing,Export Growth Program,9050,Dartmouth,Halifax Regional Municipality,B3B1W8,2018 - 2019,-63.579683,44.70058,POINT (-63.579683 44.70058)
Eosense Inc,Energy,Export Growth Program,6780,Dartmouth,Halifax Regional Municipality,B3B1E8,2018 - 2019,-63.613528,44.694128,POINT (-63.613528 44.694128)
Fossil Power Systems Inc.,Advanced Manufacturing,Export Growth Program,6700,Beaver Bank,Halifax Regional Municipality,B4G1E2,2018 - 2019,-63.68541,44.870831,POINT (-63.68541 44.870831)
InterTalk Critical Information Systems Inc,ICT (includes Digital Media),Export Growth Program,5284,Dartmouth,Halifax Regional Municipality,B3B1J4,2018 - 2019,-63.611144,44.704132,POINT (-63.611144 44.704132)
LearnCorp International,ICT (includes Digital Media),Export Growth Program,13500,Sydney,Cape Breton,B1P6L2,2018 - 2019,-60.19332,46.14367,POINT (-60.19332 46.14367)
Sailing CBI Inc,Business Services,Export Growth Program,4618,Baddeck,Victoria,B0E1B0,2018 - 2019,-60.8321268,46.073988,POINT (-60.8321268 46.073988)
Bad Fem Productions Inc.,Film Production,Export Growth Program,3417,Truro,Colchester,B2N1C1,2018 - 2019,-63.29626,45.363579,POINT (-63.29626 45.363579)
Colibri Software,ICT (includes Digital Media),Export Growth Program,1483,Wolfville,Kings,B4P2R6,2018 - 2019,-64.36820119,45.0890494,POINT (-64.36820119 45.0890494)
Festina Lente Productions Inc.,Film Production,Export Growth Program,3285,Chester,Lunenburg,B0J1J0,2018 - 2019,-64.225079,44.560562,POINT (-64.225079 44.560562)
Halifax Glassworks Limited,Advanced Manufacturing,Export Growth Program,1800,Halifax,Halifax Regional Municipality,B3J1M4,2018 - 2019,-63.572203,44.648963,POINT (-63.572203 44.648963)
Modest Tree Media Inc,ICT (includes Digital Media),Export Growth Program,7250,Halifax,Halifax Regional Municipality,B3K2R6,2018 - 2019,-63.613967,44.665253,POINT (-63.613967 44.665253)
SEG Consulting Inc.,Business Services,Export Growth Program,2312,Halifax,Halifax Regional Municipality,B3J3J8,2018 - 2019,-63.57894264,44.65095794,POINT (-63.57894264 44.65095794)
Shut Up & Colour Pictures Inc,Film Production,Export Growth Program,13796,Halifax,Halifax Regional Municipality,B3K1P6,2018 - 2019,-63.592883,44.658346,POINT (-63.592883 44.658346)
SolutionInc Ltd,ICT (includes Digital Media),Export Growth Program,4750,Halifax,Halifax Regional Municipality,B3K1T2,2018 - 2019,-63.595928,44.658385,POINT (-63.595928 44.658385)
Swept Technologies Inc.,ICT (includes Digital Media),Export Growth Program,5800,Halifax,Halifax Regional Municipality,B3J0A7,2018 - 2019,-63.5746568,44.6450065,POINT (-63.5746568 44.6450065)
WoodChaCallIt Toy and Wood Crafters,Advanced Manufacturing,Export Growth Program,7177,Hatchet Lake,Halifax Regional Municipality,B3T1P7,2018 - 2019,-63.729792,44.56335,POINT (-63.729792 44.56335)
EfficiencyOne Services Inc,Business Services,Export Growth Program,12701,Dartmouth,Halifax Regional Municipality,B3B1G5,2018 - 2019,-63.605171,44.69816,POINT (-63.605171 44.69816)
ProNova Marine Products Limited,Oceans Technology,Export Growth Program,2042,Lower Woods Harbour,Shelburne,B0W2E0,2018 - 2019,-65.718791,43.506113,POINT (-65.718791 43.506113)
QRA Corp,ICT (includes Digital Media),Export Growth Program,9487,Halifax,Halifax Regional Municipality,B3K5L2,2018 - 2019,-63.602819,44.659309,POINT (-63.602819 44.659309)
VitaMed Inc,Life Sciences,Export Growth Program,15000,Bedford,Halifax Regional Municipality,B4A1G5,2018 - 2019,-63.670275,44.709158,POINT (-63.670275 44.709158)
Core Elements Advisors Inc.,Business Services,Export Growth Program,1575,Halifax,Halifax Regional Municipality,B3H3K1,2018 - 2019,-63.588845,44.639667,POINT (-63.588845 44.639667)
Keeping Roads Safe Technologies Inc,ICT (includes Digital Media),Export Growth Program,12750,Bedford,Halifax Regional Municipality,B4B1H1,2018 - 2019,-63.710231,44.722456,POINT (-63.710231 44.722456)
Andrew MacCormack,Film Production,Export Growth Program,513,Dartmouth,Halifax Regional Municipality,B3A3R7,2018 - 2019,-63.563906,44.679054,POINT (-63.563906 44.679054)
Aqua Production Systems Incorporated,Advanced Manufacturing,Export Growth Program,14980,New Glasgow,Pictou,B2H5C4,2018 - 2019,-62.58817,45.576852,POINT (-62.58817 45.576852)
InnovaSea Marine Systems Canada Inc DBA Vemco,ICT (includes Digital Media),Export Growth Program,5725,Hammonds Plains,Halifax Regional Municipality,B4B1L9,2018 - 2019,-63.754376,44.700635,POINT (-63.754376 44.700635)
Nexus Coastal Resource Management,Engineering & Professional,Export Growth Program,6700,Hubley,Halifax Regional Municipality,B3Z1B8,2018 - 2019,-63.795244,44.672015,POINT (-63.795244 44.672015)
NS Sports Media Pros Ltd,ICT (includes Digital Media),Export Growth Program,17875,Halifax,Halifax Regional Municipality,B3S0B9,2018 - 2019,-63.6851302,44.658753,POINT (-63.6851302 44.658753)
Over The Edge (Canada) Inc,Business Services,Export Growth Program,5000,Halifax,Halifax Regional Municipality,B3P1K9,2018 - 2019,-63.617374,44.624443,POINT (-63.617374 44.624443)
Pro-Oceanus Systems Inc,Oceans Technology,Export Growth Program,14925,Bridgewater,Lunenburg,B4V1N1,2018 - 2019,-64.52322,44.379736,POINT (-64.52322 44.379736)
Sales Beacon,ICT (includes Digital Media),Export Growth Program,10352,Brooklyn,Lunenburg,B0J1H0,2018 - 2019,-64.710851,44.055473,POINT (-64.710851 44.055473)
Sober Island Oysters Limited,Fish & Seafood Processing,Export Growth Program,7800,Sheet Harbour,Halifax Regional Municipality,B0J3B0,2018 - 2019,-62.441121,44.883146,POINT (-62.441121 44.883146)
Survival Systems Ltd,Oceans Technology,Export Growth Program,6850,Dartmouth,Halifax Regional Municipality,B2Y4W6,2018 - 2019,-63.539046,44.6562,POINT (-63.539046 44.6562)
Victoria Co-Operative Fisheries Ltd,Fish & Seafood Processing,Export Growth Program,15304,Neils Harbour,Victoria,B0C1N0,2018 - 2019,-60.343878,46.762745,POINT (-60.343878 46.762745)
The Soap Company of Nova Scotia Ltd,Advanced Manufacturing,Export Growth Program,1350,Sherbrooke,Guysborough,B0J3C0,2018 - 2019,-62.026841,45.193706,POINT (-62.026841 45.193706)
My Home Apparel,Advanced Manufacturing,Export Growth Program,7400,Truro,Colchester,B2N2K5,2018 - 2019,-63.27507,45.363155,POINT (-63.27507 45.363155)
QRA Corp,ICT (includes Digital Media),Export Growth Program,10438,Halifax,Halifax Regional Municipality,B3K5L2,2018 - 2019,-63.602819,44.659309,POINT (-63.602819 44.659309)
RIMOT.IO Inc,ICT (includes Digital Media),Export Growth Program,1547,Dartmouth,Halifax Regional Municipality,B2Y4M9,2018 - 2019,-63.542698,44.660305,POINT (-63.542698 44.660305)
Site 2020 Inc.,ICT (includes Digital Media),Export Growth Program,23625,Dartmouth,Halifax Regional Municipality,B3B1L3,2018 - 2019,-63.595664,44.704755,POINT (-63.595664 44.704755)
Social Navigator Inc,ICT (includes Digital Media),Export Growth Program,25000,Halifax,Halifax Regional Municipality,B3S0B9,2018 - 2019,-63.6851302,44.658753,POINT (-63.6851302 44.658753)
Benjamin Bridge Vineyards,Agri-food,Export Growth Program,14263,Wolfville,Kings,B4P2R1,2018 - 2019,-64.403589,45.013938,POINT (-64.403589 45.013938)
Eye Catch Signs Limited,Advanced Manufacturing,Export Growth Program,15000,Halifax,Halifax Regional Municipality,B3K3V4,2018 - 2019,-63.590323,44.654665,POINT (-63.590323 44.654665)
Flo Digital Inc,ICT (includes Digital Media),Export Growth Program,3232,Halifax,Halifax Regional Municipality,B3J2X2,2018 - 2019,-63.645986,44.648416,POINT (-63.645986 44.648416)
Focal Research Consultants Limited,Business Services,Export Growth Program,7300,Halifax,Halifax Regional Municipality,B3L2C2,2018 - 2019,-63.627898,44.653612,POINT (-63.627898 44.653612)
Journeyman Film Company  Ltd.,ICT (includes Digital Media),Export Growth Program,4565,Dartmouth,Halifax Regional Municipality,B2Y2S6,2018 - 2019,-63.566107,44.666248,POINT (-63.566107 44.666248)
Sea to Sea Productions Ltd.,Film Production,Export Growth Program,2700,Boutiliers Point,Halifax Regional Municipality,B3Z1R3,2018 - 2019,-63.95209554,44.6653421,POINT (-63.95209554 44.6653421)
Shift,Business Services,Export Growth Program,4700,Head Of St Margarets Bay,Halifax Regional Municipality,B3Z1X8,2018 - 2019,-63.919943,44.680846,POINT (-63.919943 44.680846)
Turbulent Research Inc,Oceans Technology,Export Growth Program,15000,Beechville,Halifax Regional Municipality,B3T1A2,2018 - 2019,-63.690551,44.636774,POINT (-63.690551 44.636774)
Ven-Rez Products Ltd,Advanced Manufacturing,Export Growth Program,4915,Shelburne,Shelburne,B0T1W0,2018 - 2019,-65.41816,43.66134,POINT (-65.41816 43.66134)
Xeos Technologies Inc,Oceans Technology,Export Growth Program,15000,Dartmouth,Halifax Regional Municipality,B3B1L6,2018 - 2019,-63.604817,44.715039,POINT (-63.604817 44.715039)
APPILI Therapeutics,Life Sciences,Export Growth Program,15000,Halifax,Halifax Regional Municipality,B3H1A8,2018 - 2019,-63.573789,44.624478,POINT (-63.573789 44.624478)
Bereda Training Inc.,ICT (includes Digital Media),Export Growth Program,927,Halifax,Halifax Regional Municipality,B3J3K5,2018 - 2019,-63.572554,44.644489,POINT (-63.572554 44.644489)
Black Star Wealth Partners,Business Services,Export Growth Program,6125,Halifax,Halifax Regional Municipality,B3L1K9,2018 - 2019,-63.599571,44.649413,POINT (-63.599571 44.649413)
Cabbage Patch Kimchi,Agri-food,Export Growth Program,800,Halifax,Halifax Regional Municipality,B3H2S9,2018 - 2019,-63.573625,44.634901,POINT (-63.573625 44.634901)
Gorgeous Mistake Productions,Film Production,Export Growth Program,6962,Dartmouth,Halifax Regional Municipality,B3A2Y3,2018 - 2019,-63.574093,44.673505,POINT (-63.574093 44.673505)
Graphite Innovation and Technologies Inc.,Advanced Manufacturing,Export Growth Program,7425,Dartmouth,Halifax Regional Municipality,B2Y4M9,2018 - 2019,-63.542698,44.660305,POINT (-63.542698 44.660305)
Nautics Group Inc.,Advanced Manufacturing,Export Growth Program,12925,Bedford,Halifax Regional Municipality,B4A1E2,2018 - 2019,-63.66463,44.728037,POINT (-63.66463 44.728037)
Nu-Air Ventilation Systems Inc,Advanced Manufacturing,Export Growth Program,12415,Windsor,Hants,B0N2T0,2018 - 2019,-64.318054,44.819594,POINT (-64.318054 44.819594)
Ocean Sonics Ltd,Oceans Technology,Export Growth Program,15000,Great Village,Colchester,B0M1L0,2018 - 2019,-63.662186,45.369405,POINT (-63.662186 45.369405)
Retail Deep,ICT (includes Digital Media),Export Growth Program,900,Halifax,Halifax Regional Municipality,B3J3K5,2018 - 2019,-63.572554,44.644489,POINT (-63.572554 44.644489)
Rebel Road Films,Film Production,Export Growth Program,500,Antigonish,Antigonish,B2G2L3,2018 - 2019,-62.100393,45.562152,POINT (-62.100393 45.562152)
Benjamin Bridge Vineyards,Agri-food,Export Growth Program,525,Wolfville,Kings,B4P2R1,2018 - 2019,-64.403589,45.013938,POINT (-64.403589 45.013938)
BlueLight Analytics Inc,Life Sciences,Export Growth Program,25000,Halifax,Halifax Regional Municipality,B3L4G4,2018 - 2019,-63.620539,44.642071,POINT (-63.620539 44.642071)
DGI Clinical Inc.,Life Sciences,Export Growth Program,12908,Halifax,Halifax Regional Municipality,B3J2E3,2018 - 2019,-63.576047,44.646813,POINT (-63.576047 44.646813)
EcoPilot Canada Inc.,Engineering & Professional,Export Growth Program,8137,Halifax,Halifax Regional Municipality,B3J3L7,2018 - 2019,-63.575048,44.649083,POINT (-63.575048 44.649083)
Nodalblock Canada Holdings Inc.,ICT (includes Digital Media),Export Growth Program,2500,Halifax,Halifax Regional Municipality,B3J3N2,2018 - 2019,-63.57606155,44.65201157,POINT (-63.57606155 44.65201157)
Novonix Battery Testing Services Inc,Energy,Export Growth Program,4550,Bedford,Halifax Regional Municipality,B4B1H1,2018 - 2019,-63.710231,44.722456,POINT (-63.710231 44.722456)
Precision BioLogic Incorporated,Life Sciences,Export Growth Program,15000,Dartmouth,Halifax Regional Municipality,B3B0A9,2018 - 2019,-63.573165,44.695212,POINT (-63.573165 44.695212)
Tri-Star Industries Limited,Advanced Manufacturing,Export Growth Program,4675,Yarmouth,Yarmouth,B5A4B4,2018 - 2019,-66.118319,43.842674,POINT (-66.118319 43.842674)
World Link Food Distributors Inc,Fish & Seafood Processing,Export Growth Program,2450,Enfield,Halifax Regional Municipality,B2T1K3,2018 - 2019,-63.52380855,44.8796973,POINT (-63.52380855 44.8796973)
Climate Technical Gear,Advanced Manufacturing,Export Growth Program,12275,Dartmouth,Halifax Regional Municipality,B3B1S2,2018 - 2019,-63.592089,44.695586,POINT (-63.592089 44.695586)
DynaGen Technologies Incorporated,Advanced Manufacturing,Export Growth Program,5800,Dartmouth,Halifax Regional Municipality,B3B1W8,2018 - 2019,-63.579683,44.70058,POINT (-63.579683 44.70058)
Freshify Inc,Advanced Manufacturing,Export Growth Program,7494,Wolfville,Kings,B4P1P8,2018 - 2019,-64.37466729,45.08579837,POINT (-64.37466729 45.08579837)
Midgard Insect Farm Inc,Agri-food,Export Growth Program,13555,Halifax,Halifax Regional Municipality,B3L1V1,2018 - 2019,-63.602803,44.654196,POINT (-63.602803 44.654196)
Ocean Pride Fisheries Limited (Atlantic Treasure Limited),Fish & Seafood Processing,Export Growth Program,5927,Lower Wedgeport,Yarmouth,B0W2B0,2018 - 2019,-65.97528,43.717172,POINT (-65.97528 43.717172)
Proven Marketing for Lawyers Inc.,Business Services,Export Growth Program,3246,Halifax,Halifax Regional Municipality,B3H4K6,2018 - 2019,-63.578788,44.637258,POINT (-63.578788 44.637258)
Vesuvius Media Ltd.,ICT (includes Digital Media),Export Growth Program,12808,Halifax,Halifax Regional Municipality,B3M1W8,2018 - 2019,-63.650445,44.676671,POINT (-63.650445 44.676671)
EOceans Research and Consulting Inc.,Oceans Technology,Export Growth Program,2800,Dartmouth,Halifax Regional Municipality,B2Y1T7,2018 - 2019,-63.555147,44.674503,POINT (-63.555147 44.674503)
I Matheson & Company (IMC) Ltd,Advanced Manufacturing,Export Growth Program,2100,New Glasgow,Pictou,B2H5E5,2018 - 2019,-62.612365,45.601704,POINT (-62.612365 45.601704)
JusNova Agriculture Ltd,Agri-food,Export Growth Program,12850,Halifax,Halifax Regional Municipality,B3M1N1,2018 - 2019,-63.641789,44.66397,POINT (-63.641789 44.66397)
MindSea Development Incorporated,ICT (includes Digital Media),Export Growth Program,25000,Halifax,Halifax Regional Municipality,B3J3M8,2018 - 2019,-63.5727,44.647395,POINT (-63.5727 44.647395)
Blois Fish Processing Automation Limited,Fish & Seafood Processing,Export Growth Program,13825,Dartmouth,Halifax Regional Municipality,B2V2S7,2018 - 2019,-63.476576,44.653288,POINT (-63.476576 44.653288)
Enginuity Inc.,Business Services,Export Growth Program,10315,Halifax,Halifax Regional Municipality,B3P1M1,2018 - 2019,-63.615546,44.619123,POINT (-63.615546 44.619123)
Fourth Wave Strategy Inc,Business Services,Export Growth Program,14901,Dartmouth,Halifax Regional Municipality,B2X3G1,2018 - 2019,-63.5417345,44.69860475,POINT (-63.5417345 44.69860475)
Allendale Electronics Ltd,Advanced Manufacturing,Export Growth Program,14000,Lockeport,Shelburne,B0T1L0,2018 - 2019,-65.12347,43.71839,POINT (-65.12347 43.71839)
Dragon Veterinary Canada Limited,ICT (includes Digital Media),Export Growth Program,15000,Bedford,Halifax Regional Municipality,B4A1H4,2018 - 2019,-63.674559,44.711731,POINT (-63.674559 44.711731)
Duckish Natural Skin Care Limited,Advanced Manufacturing,Export Growth Program,5047,Halifax,Halifax Regional Municipality,B3L1K1,2018 - 2019,-63.595101,44.649822,POINT (-63.595101 44.649822)
Romor Ocean Solutions,Oceans Technology,Export Growth Program,13697,Mount Uniacke,Hants,B0N1Z0,2018 - 2019,-63.870954,45.034086,POINT (-63.870954 45.034086)
Schoolhouse Gluten Free Gourmet Ltd.,Agri-food,Export Growth Program,2185,Mahone Bay,Lunenburg,B0J2E0,2018 - 2019,-64.307402,44.308292,POINT (-64.307402 44.308292)
Spritely Technologies Inc,ICT (includes Digital Media),Export Growth Program,7900,Halifax,Halifax Regional Municipality,B3S1E5,2018 - 2019,-63.665971,44.662523,POINT (-63.665971 44.662523)
Green Power Labs Inc,Energy,Export Growth Program,15000,Dartmouth,Halifax Regional Municipality,B2Y4M9,2018 - 2019,-63.542698,44.660305,POINT (-63.542698 44.660305)
Andrea Janzen Professional Coaching,Business Services,Export Growth Program,801,Halifax,Halifax Regional Municipality,B3L2S7,2018 - 2019,-63.599408,44.644887,POINT (-63.599408 44.644887)
Atlantic Ambassatours Ltd.,Business Services,Export Growth Program,3737,Halifax,Halifax Regional Municipality,B3K2V6,2018 - 2019,-63.619767,44.666131,POINT (-63.619767 44.666131)
Baie Run Pet Products Inc,Agri-food,Export Growth Program,14998,Halifax,Halifax Regional Municipality,B3J3N2,2018 - 2019,-63.57606155,44.65201157,POINT (-63.57606155 44.65201157)
Benjamin Bridge Vineyards,Agri-food,Export Growth Program,16350,Wolfville,Kings,B4P2R1,2018 - 2019,-64.403589,45.013938,POINT (-64.403589 45.013938)
Left Meets Right Creative Co,ICT (includes Digital Media),Export Growth Program,500,Halifax,Halifax Regional Municipality,B3K5V4,2018 - 2019,-63.614427,44.665139,POINT (-63.614427 44.665139)
RPS Composites Inc,Advanced Manufacturing,Export Growth Program,7500,Mahone Bay,Lunenburg,B0J2E0,2018 - 2019,-64.307402,44.308292,POINT (-64.307402 44.308292)
Ruby Tree Films Inc.,Film Production,Export Growth Program,4698,Halifax,Halifax Regional Municipality,B3J2A1,2018 - 2019,-63.573748,44.646552,POINT (-63.573748 44.646552)
Success Through Trust Inc,Business Services,Export Growth Program,4748,Halifax,Halifax Regional Municipality,B3L2H3,2018 - 2019,-63.626126,44.648102,POINT (-63.626126 44.648102)
Muwin Estate Wines Ltd,Agri-food,Export Growth Program,15000,New Ross,Lunenburg,B0J2M0,2018 - 2019,-63.916747,44.706544,POINT (-63.916747 44.706544)
Black Dog Films / The Monster Productions Inc,Film Production,Export Growth Program,21119,Halifax,Halifax Regional Municipality,B3L1P4,2018 - 2019,-63.598415,44.652126,POINT (-63.598415 44.652126)
GN Plastics Company Ltd.,Advanced Manufacturing,Export Growth Program,14525,Chester,Lunenburg,B0J1J0,2018 - 2019,-64.225079,44.560562,POINT (-64.225079 44.560562)
Keeping Roads Safe Technologies Inc,ICT (includes Digital Media),Export Growth Program,3000,Bedford,Halifax Regional Municipality,B4B1H1,2018 - 2019,-63.710231,44.722456,POINT (-63.710231 44.722456)
Nautel Limited,Advanced Manufacturing,Export Growth Program,15000,Hacketts Cove,Halifax Regional Municipality,B3Z3J4,2018 - 2019,-63.852091,44.686573,POINT (-63.852091 44.686573)
Efficiency Properties,ICT (includes Digital Media),Export Growth Program,6600,Halifax,Halifax Regional Municipality,B3K3P2,2018 - 2019,-63.605039,44.668481,POINT (-63.605039 44.668481)
Aerovision Canada,Aerospace & Defence,Export Growth Program,3935,Beechville,Halifax Regional Municipality,B3T1A2,2018 - 2019,-63.690551,44.636774,POINT (-63.690551 44.636774)
Atlantic Sea Cucumber Ltd,Fish & Seafood Processing,Export Growth Program,14952,Hacketts Cove,Halifax Regional Municipality,B3Z3K7,2018 - 2019,-63.757708,44.662435,POINT (-63.757708 44.662435)
Focal Technologies Corporation,Oceans Technology,Export Growth Program,15000,Dartmouth,Halifax Regional Municipality,B3B1Z4,2018 - 2019,-63.587502,44.711855,POINT (-63.587502 44.711855)
Glas Ocean Electric Inc,Energy,Export Growth Program,14250,Halifax,Halifax Regional Municipality,B3P2H3,2018 - 2019,-63.577884,44.615051,POINT (-63.577884 44.615051)
Picture Plant Ltd.,Film Production,Export Growth Program,4089,Bridgewater,Lunenburg,B0J2C0,2018 - 2019,-64.309889,44.37635,POINT (-64.309889 44.37635)
Red Dragon Marketing,Business Services,Export Growth Program,8180,Windsor,Hants,B0N2T0,2018 - 2019,-64.318054,44.819594,POINT (-64.318054 44.819594)
Roswall Development Incorporated,Energy,Export Growth Program,1000,Halifax,Halifax Regional Municipality,B3M2L3,2018 - 2019,-63.66099,44.683287,POINT (-63.66099 44.683287)
Strongest Families Institute,Business Services,Export Growth Program,8925,Lower Sackville,Halifax Regional Municipality,B4C4E6,2018 - 2019,-63.65843038,44.7606098,POINT (-63.65843038 44.7606098)
2 Crows Brewing Ltd,Agri-food,Export Growth Program,4675,Halifax,Halifax Regional Municipality,B3J2G7,2018 - 2019,-63.578146,44.649349,POINT (-63.578146 44.649349)
902HipHop Inc.,ICT (includes Digital Media),Export Growth Program,14868,Halifax,Halifax Regional Municipality,B3K4N7,2018 - 2019,-63.594931,44.654736,POINT (-63.594931 44.654736)
Canada Rope & Twine Limited,Advanced Manufacturing,Export Growth Program,13675,Bedford,Halifax Regional Municipality,B4B1H1,2018 - 2019,-63.710231,44.722456,POINT (-63.710231 44.722456)
GeoNavo Positioning Systems Inc,ICT (includes Digital Media),Export Growth Program,13750,Hammonds Plains,Halifax Regional Municipality,B4B2B8,2018 - 2019,-63.800164,44.734087,POINT (-63.800164 44.734087)
Hoppy's Safety Hook Enterprise,Advanced Manufacturing,Export Growth Program,1640,Saulnierville,Digby,B0W2Z0,2018 - 2019,-65.974666,43.730094,POINT (-65.974666 43.730094)
Lorax Systems Inc,Energy,Export Growth Program,4178,Dartmouth,Halifax Regional Municipality,B3B1S8,2018 - 2019,-63.588536,44.700833,POINT (-63.588536 44.700833)
Manage Your Spend,ICT (includes Digital Media),Export Growth Program,3322,Halifax,Halifax Regional Municipality,B3J3Z2,2018 - 2019,-63.569364,44.643446,POINT (-63.569364 44.643446)
Outdoor-Fit Exercise Systems,Advanced Manufacturing,Export Growth Program,7000,Dartmouth,Halifax Regional Municipality,B3B1M3,2018 - 2019,-63.611768,44.703405,POINT (-63.611768 44.703405)
Pelagis Data Solutions,Oceans Technology,Export Growth Program,5475,Point Edward,Cape Breton,B2A4R2,2018 - 2019,-60.276693,46.162688,POINT (-60.276693 46.162688)
Pictou Twist Pictures Inc,Film Production,Export Growth Program,7037,Halifax,Halifax Regional Municipality,B3J1J7,2018 - 2019,-63.573178,44.645217,POINT (-63.573178 44.645217)
Sales Beacon,ICT (includes Digital Media),Export Growth Program,4648,Brooklyn,Lunenburg,B0J1H0,2018 - 2019,-64.710851,44.055473,POINT (-64.710851 44.055473)
Side Door Access Inc,ICT (includes Digital Media),Export Growth Program,1375,Halifax,Halifax Regional Municipality,B3K1H1,2018 - 2019,-63.588243,44.6524635,POINT (-63.588243 44.6524635)
Smarter Spaces Inc,Business Services,Export Growth Program,3349,Halifax,Halifax Regional Municipality,B3K5M4,2018 - 2019,-63.590281,44.662737,POINT (-63.590281 44.662737)
WarrierTech Inc,ICT (includes Digital Media),Export Growth Program,14979,Halifax,Halifax Regional Municipality,B3H1Y1,2018 - 2019,-63.5849,44.640901,POINT (-63.5849 44.640901)
SimplyCast Interactive Marketing LTD.,ICT (includes Digital Media),Export Growth Program,2625,Dartmouth,Halifax Regional Municipality,B2W6E2,2018 - 2019,-63.535262,44.681461,POINT (-63.535262 44.681461)
Omnitech Electronics Inc,Oceans Technology,Export Growth Program,12500,Dartmouth,Halifax Regional Municipality,B3B1J4,2018 - 2019,-63.611144,44.704132,POINT (-63.611144 44.704132)
TerraProForma (FORMERLY - Play the Field),ICT (includes Digital Media),Export Growth Program,15000,Halifax,Halifax Regional Municipality,B3H3W5,2018 - 2019,-63.593067,44.632894,POINT (-63.593067 44.632894)
Javitech Atlantic Ltd,Business Services,Export Growth Program,3081,Halifax,Halifax Regional Municipality,B3M2L8,2018 - 2019,-63.660842,44.693973,POINT (-63.660842 44.693973)
Allswater Marine Consultants Ltd,Oceans Technology,Export Growth Program,5300,Bedford,Halifax Regional Municipality,B4A1B9,2018 - 2019,-63.673227,44.719376,POINT (-63.673227 44.719376)
Atlantic Prepaid,ICT (includes Digital Media),Export Growth Program,24207,Lower Sackville,Halifax Regional Municipality,B4C2R3,2018 - 2019,-63.66590854,44.7542213,POINT (-63.66590854 44.7542213)
Blue Ocean Contact Centers,Business Services,Export Growth Program,15000,Halifax,Halifax Regional Municipality,B3L4V2,2018 - 2019,-63.623858,44.653361,POINT (-63.623858 44.653361)
Classic Fine Foods,Agri-food,Export Growth Program,1700,Edwardsville,Cape Breton,B2A4S6,2018 - 2019,-60.22160264,46.15678026,POINT (-60.22160264 46.15678026)
Cut/Off/Tail Pictures,Film Production,Export Growth Program,1500,Halifax,Halifax Regional Municipality,B3V1M4,2018 - 2019,-63.653534,44.471319,POINT (-63.653534 44.471319)
First Catch Fisheries Co. Ltd,Fish & Seafood Processing,Export Growth Program,14250,Enfield,Hants,B2T1E4,2018 - 2019,-63.5174,44.886106,POINT (-63.5174 44.886106)
Ocean Perfect North America Inc.,Fish & Seafood Processing,Export Growth Program,4325,Enfield,Halifax Regional Municipality,B2T1K3,2018 - 2019,-63.52380855,44.8796973,POINT (-63.52380855 44.8796973)
Picture Plant Ltd.,Film Production,Export Growth Program,2275,Bridgewater,Lunenburg,B0J2C0,2018 - 2019,-64.309889,44.37635,POINT (-64.309889 44.37635)
Skye Larke Productions Limited,Film Production,Export Growth Program,12020,River John,Pictou,B0K1N0,2018 - 2019,-63.041939,45.747988,POINT (-63.041939 45.747988)
SOHMA Naturals,Life Sciences,Export Growth Program,4500,Digby,Digby,B0V1A0,2018 - 2019,-65.84642,44.536344,POINT (-65.84642 44.536344)
The Discovery Centre International Inc.,Business Services,Export Growth Program,15000,Halifax,Halifax Regional Municipality,B3J3S8,2018 - 2019,-63.568235,44.64141,POINT (-63.568235 44.64141)
The Family Knife Marketing Consultancy Inc.,Business Services,Export Growth Program,5150,Halifax,Halifax Regional Municipality,B3L3G5,2018 - 2019,-63.613647,44.643919,POINT (-63.613647 44.643919)
Twirp Communications,Business Services,Export Growth Program,6600,Hammonds Plains,Halifax Regional Municipality,B4B1M2,2018 - 2019,-63.75765119,44.69567657,POINT (-63.75765119 44.69567657)
Ven-Rez Products Ltd,Advanced Manufacturing,Export Growth Program,2386,Shelburne,Shelburne,B0T1W0,2018 - 2019,-65.41816,43.66134,POINT (-65.41816 43.66134)
Vertical Productions Inc.,Film Production,Export Growth Program,5870,Head Of St Margarets Bay,Halifax Regional Municipality,B3Z2G5,2018 - 2019,-63.90069908,44.68497759,POINT (-63.90069908 44.68497759)
B4Checkin Limited,ICT (includes Digital Media),Export Growth Program,4546,Halifax,Halifax Regional Municipality,B3J3S9,2018 - 2019,-63.586911,44.640361,POINT (-63.586911 44.640361)
Guild Software Inc,Business Services,Export Growth Program,11350,Bedford,Halifax Regional Municipality,B4A1E6,2018 - 2019,-63.657959,44.731599,POINT (-63.657959 44.731599)
Atlantex Limited,Advanced Manufacturing,Export Growth Program,2482,Head Of Chezzetcook,Halifax Regional Municipality,B0J1N0,2018 - 2019,-64.326325,44.375846,POINT (-64.326325 44.375846)
Bandha Nutrition Products,Agri-food,Export Growth Program,2295,Halifax,Halifax Regional Municipality,B3J1Z2,2018 - 2019,-63.571931,44.643044,POINT (-63.571931 44.643044)
Boxing Rock Brewing Co,Advanced Manufacturing,Export Growth Program,13720,Shelburne,Shelburne,B0T1W0,2018 - 2019,-65.41816,43.66134,POINT (-65.41816 43.66134)
Breton SmarTek Inc,ICT (includes Digital Media),Export Growth Program,9108,Sydney,Cape Breton,B1P6H1,2018 - 2019,-60.224927,46.083532,POINT (-60.224927 46.083532)
Dormie Golf Workshop Inc.,Advanced Manufacturing,Export Growth Program,8568,Halifax,Halifax Regional Municipality,B3K2Y3,2018 - 2019,-63.590301,44.660963,POINT (-63.590301 44.660963)
Dynamic Systems Analysis Ltd.,Oceans Technology,Export Growth Program,6725,Halifax,Halifax Regional Municipality,B3K4X8,2018 - 2019,-63.614939,44.661614,POINT (-63.614939 44.661614)
Ednaturals Bar,Agri-food,Export Growth Program,4620,Halifax,Halifax Regional Municipality,B3P1H5,2018 - 2019,-63.610642,44.617409,POINT (-63.610642 44.617409)
InterTalk Critical Information Systems Inc,ICT (includes Digital Media),Export Growth Program,5800,Dartmouth,Halifax Regional Municipality,B3B1J4,2018 - 2019,-63.611144,44.704132,POINT (-63.611144 44.704132)
Magic Rock Productions,Film Production,Export Growth Program,5000,Halifax,Halifax Regional Municipality,B3J1K9,2018 - 2019,-63.575676,44.645676,POINT (-63.575676 44.645676)
Marcato Digital Solutions Inc,ICT (includes Digital Media),Export Growth Program,8175,Sydney,Cape Breton,B1P6J1,2018 - 2019,-60.224927,46.083533,POINT (-60.224927 46.083533)
Mersey Consulting Ltd,Energy,Export Growth Program,10025,Shad Bay,Halifax Regional Municipality,B3T2B5,2018 - 2019,-63.78345074,44.52367796,POINT (-63.78345074 44.52367796)
Mil-Aero Electronics Atlantic Inc,Advanced Manufacturing,Export Growth Program,2660,Dartmouth,Halifax Regional Municipality,B2Y4V9,2018 - 2019,-63.540249,44.657211,POINT (-63.540249 44.657211)
Partner International Inc,Business Services,Export Growth Program,15000,Dartmouth,Halifax Regional Municipality,B2Y4T6,2018 - 2019,-63.544976,44.661923,POINT (-63.544976 44.661923)
Stark International Inc,Energy,Export Growth Program,13703,New Glasgow,Pictou,B2H2T3,2018 - 2019,-62.6438518,45.58895964,POINT (-62.6438518 45.58895964)
Capital Seafood International Incorporated,Fish & Seafood Processing,Export Growth Program,15000,Eastern Passage,Halifax Regional Municipality,B3G1M5,2018 - 2019,-63.492851,44.61556,POINT (-63.492851 44.61556)
3231974 NOVA SCOTIA LIMITED o/a Do Lobster,Fish & Seafood Processing,Export Growth Program,6151,Eastern Passage,Halifax Regional Municipality,B3G1M4,2018 - 2019,-63.494322,44.612474,POINT (-63.494322 44.612474)
Aerotec Engines Limited,Advanced Manufacturing,Export Growth Program,12700,Beaver Bank,Halifax Regional Municipality,B4G1A6,2018 - 2019,-63.696482,44.821286,POINT (-63.696482 44.821286)
CBCL Limited,Energy,Export Growth Program,14820,Halifax,Halifax Regional Municipality,B3J2R7,2018 - 2019,-63.572435,44.651581,POINT (-63.572435 44.651581)
Clerisy Management Group Limited,Film Production,Export Growth Program,5500,Dartmouth,Halifax Regional Municipality,B3B1W9,2018 - 2019,-63.579685,44.69696,POINT (-63.579685 44.69696)
Cribcut,ICT (includes Digital Media),Export Growth Program,9375,Halifax,Halifax Regional Municipality,B3J3R7,2018 - 2019,-63.57614729,44.65208895,POINT (-63.57614729 44.65208895)
Current Studios Inc,ICT (includes Digital Media),Export Growth Program,15768,Halifax,Halifax Regional Municipality,B3J3X8,2018 - 2019,-63.576767,44.64669,POINT (-63.576767 44.64669)
Dugo Systems Inc,ICT (includes Digital Media),Export Growth Program,3600,Halifax,Halifax Regional Municipality,B3J3K5,2018 - 2019,-63.572554,44.644489,POINT (-63.572554 44.644489)
East Coast School of Languages (ECSL),Business Services,Export Growth Program,4519,Halifax,Halifax Regional Municipality,B3J1V6,2018 - 2019,-63.571891,44.646015,POINT (-63.571891 44.646015)
Fit First Holdings Inc.,Business Services,Export Growth Program,4400,Dartmouth,Halifax Regional Municipality,B3B1X2,2018 - 2019,-63.595848,44.710189,POINT (-63.595848 44.710189)
Iris Booth Incorporated,Business Services,Export Growth Program,11041,Halifax,Halifax Regional Municipality,B3K2Z8,2018 - 2019,-63.581653,44.651755,POINT (-63.581653 44.651755)
Lorax Systems Inc,Energy,Export Growth Program,10024,Dartmouth,Halifax Regional Municipality,B3B1S8,2018 - 2019,-63.588536,44.700833,POINT (-63.588536 44.700833)
Retail Deep,ICT (includes Digital Media),Export Growth Program,3675,Halifax,Halifax Regional Municipality,B3J3K5,2018 - 2019,-63.572554,44.644489,POINT (-63.572554 44.644489)
Tucan Olive Oil Company Ltd,Agri-food,Export Growth Program,2699,Dartmouth,Halifax Regional Municipality,B2W2P8,2018 - 2019,-63.519127,44.672757,POINT (-63.519127 44.672757)
4Deep Inwater Imaging,Oceans Technology,Export Growth Program,15000,Halifax,Halifax Regional Municipality,B4B1G2,2018 - 2019,-63.741086,44.724533,POINT (-63.741086 44.724533)
Arcadia Entertainment Inc.,Film Production,Export Growth Program,10109,Halifax,Halifax Regional Municipality,B3L1A9,2018 - 2019,-63.601752,44.644087,POINT (-63.601752 44.644087)
Bend Beauty Inc.,Life Sciences,Export Growth Program,9500,Halifax,Halifax Regional Municipality,B3J1C7,2018 - 2019,-63.577291,44.639639,POINT (-63.577291 44.639639)
Beta Glucan Company of Canada Inc.,Life Sciences,Export Growth Program,2150,Halifax,Halifax Regional Municipality,B3H4N3,2018 - 2019,-63.578083,44.629216,POINT (-63.578083 44.629216)
BlockCrushr Inc.,ICT (includes Digital Media),Export Growth Program,9200,Halifax,Halifax Regional Municipality,B3L2W4,2018 - 2019,-63.608409,44.653374,POINT (-63.608409 44.653374)
Boondoc Technologies Inc (The Rounds),ICT (includes Digital Media),Export Growth Program,18220,Halifax,Halifax Regional Municipality,B3K4X5,2018 - 2019,-63.611268,44.662185,POINT (-63.611268 44.662185)
C Squared Project Management Services Ltd.,Engineering & Professional,Export Growth Program,5275,Bedford,Halifax Regional Municipality,B4A0B4,2018 - 2019,-63.681376,44.710595,POINT (-63.681376 44.710595)
Copernicus Labs Inc,ICT (includes Digital Media),Export Growth Program,13201,Halifax,Halifax Regional Municipality,B3J3P1,2018 - 2019,-63.616146,44.674409,POINT (-63.616146 44.674409)
Eosense Inc,Energy,Export Growth Program,5460,Dartmouth,Halifax Regional Municipality,B3B1E8,2018 - 2019,-63.613528,44.694128,POINT (-63.613528 44.694128)
Innovative Fishery Products Inc,Fish & Seafood Processing,Export Growth Program,1515,Belliveau Cove,Digby,B0W1J0,2018 - 2019,-66.072105,44.357602,POINT (-66.072105 44.357602)
ITO Seafoods Ltd,Fish & Seafood Processing,Export Growth Program,7400,Halifax,Halifax Regional Municipality,B3J3R3,2018 - 2019,-63.56899455,44.64269727,POINT (-63.56899455 44.64269727)
Momentum IT Group,ICT (includes Digital Media),Export Growth Program,10566,Halifax,Halifax Regional Municipality,B3J1Y2,2018 - 2019,-63.570421,44.64012,POINT (-63.570421 44.64012)
Nautical Seafoods Ltd,Fish & Seafood Processing,Export Growth Program,1950,Clementsport,Annapolis,B0S1K0,2018 - 2019,-65.744945,44.705351,POINT (-65.744945 44.705351)
Prism Tradeshow Products Inc.,Advanced Manufacturing,Export Growth Program,14625,Dartmouth,Halifax Regional Municipality,B2Y4M9,2018 - 2019,-63.542698,44.660305,POINT (-63.542698 44.660305)
"Sufata Software Solutions, Inc",ICT (includes Digital Media),Export Growth Program,14537,Hammonds Plains,Halifax Regional Municipality,B4B1E4,2018 - 2019,-63.740718,44.725204,POINT (-63.740718 44.725204)
Trip Ninja,ICT (includes Digital Media),Export Growth Program,3750,Halifax,Halifax Regional Municipality,B3J2V1,2018 - 2019,-63.645986,44.648416,POINT (-63.645986 44.648416)
Uplift Content Inc,ICT (includes Digital Media),Export Growth Program,5750,Dartmouth,Halifax Regional Municipality,B2Y2G6,2018 - 2019,-63.553251,44.661883,POINT (-63.553251 44.661883)
Verb Interactive Inc.,Business Services,Export Growth Program,14970,Halifax,Halifax Regional Municipality,B3J2A2,2018 - 2019,-63.573726,44.646512,POINT (-63.573726 44.646512)
Wired Flare Inc,Business Services,Export Growth Program,9412,Dartmouth,Halifax Regional Municipality,B2V1N4,2018 - 2019,-63.456788,44.681162,POINT (-63.456788 44.681162)
Ocean Entertainment Ltd.,Film Production,Export Growth Program,15000,Halifax,Halifax Regional Municipality,B3K4T9,2018 - 2019,-63.593521,44.650817,POINT (-63.593521 44.650817)
Pisces Research Project Management Inc,Business Services,Export Growth Program,2065,Halifax,Halifax Regional Municipality,B3K2L9,2018 - 2019,-63.603725,44.669255,POINT (-63.603725 44.669255)
Survival Systems Ltd,Oceans Technology,Export Growth Program,7390,Dartmouth,Halifax Regional Municipality,B2Y4W6,2018 - 2019,-63.539046,44.6562,POINT (-63.539046 44.6562)
Web Builders Group Inc,ICT (includes Digital Media),Export Growth Program,10350,New Glasgow,Pictou,B2H2P6,2018 - 2019,-62.644931,45.587924,POINT (-62.644931 45.587924)
HB Studios Multimedia Ltd,ICT (includes Digital Media),Export Growth Program,15000,New Germany,Lunenburg,B0R1E0,2018 - 2019,-64.620343,44.469069,POINT (-64.620343 44.469069)
Dartmouth Metals and Bottle Limited,Advanced Manufacturing,Innovation Rebate Program,596613,Dartmouth,Halifax Regional Municipality,B3B1H9,2018 - 2019,-63.607766,44.702958,POINT (-63.607766 44.702958)
"Kenney & Ross, Limited",Advanced Manufacturing,Innovation Rebate Program,636884,Shelburne,Shelburne,B0T1W0,2018 - 2019,-65.41816,43.66134,POINT (-65.41816 43.66134)
Ocean Crisp Apple Company Incorporated,Agri-food,Innovation Rebate Program,1168766,Kentville,Kings,B4N3V7,2018 - 2019,-64.547804,45.067163,POINT (-64.547804 45.067163)
Surrette Battery Company Limited,Advanced Manufacturing,Innovation Rebate Program,1200248,Springhill,Cumberland,B0M1X0,2018 - 2019,-64.034548,45.664595,POINT (-64.034548 45.664595)
Benjamin Bridge Vineyards,Agri-food,Innovation Rebate Program,1317375,Wolfville,Kings,B4P2R1,2018 - 2019,-64.403589,45.013938,POINT (-64.403589 45.013938)
John Ross & Sons Ltd.,Advanced Manufacturing,Innovation Rebate Program,1070296,Halifax,Halifax Regional Municipality,B3S1B3,2018 - 2019,-63.663711,44.637971,POINT (-63.663711 44.637971)
Maritime Labels & Packaging,Advanced Manufacturing,Innovation Rebate Program,540335,Bedford,Halifax Regional Municipality,B4B1G7,2018 - 2019,-63.707864,44.725286,POINT (-63.707864 44.725286)
Kohltech International Ltd,Advanced Manufacturing,Innovation Rebate Program,843388,Debert,Colchester,B0M1G0,2018 - 2019,-63.531392,45.468637,POINT (-63.531392 45.468637)
Agropur Cooperative,Agri-food,Innovation Rebate Program,1843776,Truro,Colchester,B2N6W9,2018 - 2019,-63.28926512,45.34069389,POINT (-63.28926512 45.34069389)
Scotian Gold Cooperative Ltd,Agri-food,Innovation Rebate Program,477333,Coldbrook,Kings,B4R1A6,2018 - 2019,-64.5855291,45.0650474,POINT (-64.5855291 45.0650474)
Oxford Frozen Foods Ltd,Agri-food,Innovation Rebate Program,702205,Oxford,Cumberland,B0M1P0,2018 - 2019,-63.849946,45.810473,POINT (-63.849946 45.810473)
Michelin North America (Canada) Inc - Granton,Advanced Manufacturing,Innovation Rebate Program,3569500,New Glasgow,Pictou,B2H5E6,2018 - 2019,-62.639785,45.609213,POINT (-62.639785 45.609213)
AF Theriault & Son Ltd.,Advanced Manufacturing,Innovation Rebate Program,1536878,Meteghan River,Digby,B0W2L0,2018 - 2019,-66.119502,44.221552,POINT (-66.119502 44.221552)
Kilo Communications Inc,ICT (includes Digital Media),P&I Voucher,15000,Halifax,Halifax Regional Municipality,B3K1N1,2018 - 2019,-63.592032,44.656647,POINT (-63.592032 44.656647)
The Lobster Trap Company Limited,Oceans Technology,P&I Voucher,25000,Yarmouth,Yarmouth,B5A4B4,2018 - 2019,-66.118319,43.842674,POINT (-66.118319 43.842674)
Airesun Global Limited,Chemicals & Plastics,P&I Voucher,15000,Glace Bay,Cape Breton,B1A4S6,2018 - 2019,-59.991669,46.206353,POINT (-59.991669 46.206353)
Hivetronics Limited,Agri-food,P&I Voucher,15000,Dartmouth,Halifax Regional Municipality,B2W4Z3,2018 - 2019,-63.503976,44.686741,POINT (-63.503976 44.686741)
Photodynamic Incorporated,Life Sciences,P&I Voucher,25000,Halifax,Halifax Regional Municipality,B3H1A8,2018 - 2019,-63.573789,44.624478,POINT (-63.573789 44.624478)
NeoThermal Energy Storage Inc,Energy,P&I Voucher,15000,Bridgewater,Lunenburg,B4V1P4,2018 - 2019,-64.523942,44.378324,POINT (-64.523942 44.378324)
Scotia Garden Seafoods Inc,Fish & Seafood Processing,P&I Voucher,15000,Yarmouth,Yarmouth,B5A4B1,2018 - 2019,-66.121483,43.816747,POINT (-66.121483 43.816747)
Axem Neurotechnology Inc.,Life Sciences,P&I Voucher,15000,Halifax,Halifax Regional Municipality,B3J3K5,2018 - 2019,-63.572554,44.644489,POINT (-63.572554 44.644489)
Focal Research Consultants Limited,Business Services,P&I Voucher,25000,Halifax,Halifax Regional Municipality,B3L2C2,2018 - 2019,-63.627898,44.653612,POINT (-63.627898 44.653612)
Nova Aquaponics Incorporated,Advanced Manufacturing,P&I Voucher,25000,Halifax,Halifax Regional Municipality,B3M3Y8,2018 - 2019,-63.667551,44.676453,POINT (-63.667551 44.676453)
FoodByte Inc,ICT (includes Digital Media),P&I Voucher,15000,Wolfville,Kings,B4P2R6,2018 - 2019,-64.36820119,45.0890494,POINT (-64.36820119 45.0890494)
Louisbourg Seafoods Ltd,Fish & Seafood Processing,P&I Voucher,15000,Louisbourg,Cape Breton,B1C1B5,2018 - 2019,-59.97144562,45.91905461,POINT (-59.97144562 45.91905461)
Baie Run Pet Products Inc,Agri-food,P&I Voucher,15000,Halifax,Halifax Regional Municipality,B3J3N2,2018 - 2019,-63.57606155,44.65201157,POINT (-63.57606155 44.65201157)
Dugo Systems Inc,ICT (includes Digital Media),P&I Voucher,25000,Halifax,Halifax Regional Municipality,B3J3K5,2018 - 2019,-63.572554,44.644489,POINT (-63.572554 44.644489)
Aurea Technologies Inc,Energy,P&I Voucher,15000,Glen Haven,Halifax Regional Municipality,B3Z2V7,2018 - 2019,-63.740414,44.657359,POINT (-63.740414 44.657359)
D.M.R. Boat Design Limited,Oceans Technology,P&I Voucher,15000,Whites Lake,Halifax Regional Municipality,B3T1X3,2018 - 2019,-63.737267,44.507267,POINT (-63.737267 44.507267)
Cape Breton Bivalve Inc,Fish & Seafood Processing,P&I Voucher,15000,Louisbourg,Cape Breton,B1C2L8,2018 - 2019,-59.976684,45.918232,POINT (-59.976684 45.918232)
Velsoft Training Materials Inc,ICT (includes Digital Media),P&I Voucher,15000,New Glasgow,Pictou,B2H2P8,2018 - 2019,-62.64523,45.587057,POINT (-62.64523 45.587057)
Grey Lit Matters Inc,ICT (includes Digital Media),P&I Voucher,15000,Halifax,Halifax Regional Municipality,B3P1A8,2018 - 2019,-63.608219,44.630968,POINT (-63.608219 44.630968)
F L Action/Reaction Sports,Advanced Manufacturing,P&I Voucher,25000,Arcadia,Yarmouth,B0W1B0,2018 - 2019,-65.994395,43.749188,POINT (-65.994395 43.749188)
Heritage Memorials Limited,Agri-food,P&I Voucher,25000,Windsor,Hants,B0N2T0,2018 - 2019,-64.318054,44.819594,POINT (-64.318054 44.819594)
Boxing Rock Brewing Co,Advanced Manufacturing,P&I Voucher,15000,Shelburne,Shelburne,B0T1W0,2018 - 2019,-65.41816,43.66134,POINT (-65.41816 43.66134)
The 7 Virtues Beauty Inc,Advanced Manufacturing,P&I Voucher,25000,Halifax,Halifax Regional Municipality,B3H1B1,2018 - 2019,-63.574296,44.624597,POINT (-63.574296 44.624597)
Duckish Natural Skin Care Limited,Advanced Manufacturing,P&I Voucher,25000,Halifax,Halifax Regional Municipality,B3L1K1,2018 - 2019,-63.595101,44.649822,POINT (-63.595101 44.649822)
Chelation Partners Incorporated,Life Sciences,P&I Voucher,25000,Halifax,Halifax Regional Municipality,B3H3Z1,2018 - 2019,-63.59645,44.637136,POINT (-63.59645 44.637136)
Dykeview Farms Limited,Agri-food,P&I Voucher,15000,Centreville,Kings,B0P1J0,2018 - 2019,-64.680474,45.195976,POINT (-64.680474 45.195976)
Fundy Hops,Agri-food,P&I Voucher,15000,Waterville,Kings,B0P1V0,2018 - 2019,-64.689373,45.149172,POINT (-64.689373 45.149172)
Atlantick Repellent Products Inc.,Chemicals & Plastics,P&I Voucher,25000,Mahone Bay,Lunenburg,B0J2E0,2018 - 2019,-64.307402,44.308292,POINT (-64.307402 44.308292)
Saltbox Brewing Company,Agri-food,P&I Voucher,25000,Mahone Bay,Lunenburg,B0J2E0,2018 - 2019,-64.307402,44.308292,POINT (-64.307402 44.308292)
Sea-Pur Seaweed Products,Agri-food,P&I Voucher,15000,Sydney,Cape Breton,B1S3S4,2018 - 2019,-60.18298,46.110635,POINT (-60.18298 46.110635)
Alto Solar,Energy,P&I Voucher,15000,Halifax,Halifax Regional Municipality,B3L1P9,2018 - 2019,-63.599844,44.652427,POINT (-63.599844 44.652427)
Natural Ocean Products Inc.,ICT (includes Digital Media),P&I Voucher,25000,Halifax,Halifax Regional Municipality,B3V1L9,2018 - 2019,-63.62997,44.469104,POINT (-63.62997 44.469104)
RGI Logistics & Technology Inc.,Advanced Manufacturing,P&I Voucher,15000,New Waterford,Cape Breton,B1H3R7,2018 - 2019,-60.09051595,46.2412227,POINT (-60.09051595 46.2412227)
L'Acadie Vineyards,Agri-food,P&I Voucher,15000,Wolfville,Kings,B4P2R1,2018 - 2019,-64.403589,45.013938,POINT (-64.403589 45.013938)
Stevens Solutions & Design Inc,Advanced Manufacturing,P&I Voucher,15000,Mahone Bay,Lunenburg,B0J2E0,2018 - 2019,-64.307402,44.308292,POINT (-64.307402 44.308292)
Bear River Vineyards Ltd.,Agri-food,P&I Voucher,15000,Bear River,Digby,B0S1B0,2018 - 2019,-65.610454,44.554357,POINT (-65.610454 44.554357)
Deprolabs Technology Inc.,ICT (includes Digital Media),P&I Voucher,15000,Halifax,Halifax Regional Municipality,B3S1G5,2018 - 2019,-63.673695,44.672237,POINT (-63.673695 44.672237)
EOceans Research and Consulting Inc.,Oceans Technology,P&I Voucher,15000,Dartmouth,Halifax Regional Municipality,B2Y1T7,2018 - 2019,-63.555147,44.674503,POINT (-63.555147 44.674503)
Mermaid Fare Inc,Agri-food,P&I Voucher,15000,Dartmouth,Halifax Regional Municipality,B2Y2W1,2018 - 2019,-63.56358,44.667535,POINT (-63.56358 44.667535)
ColorSmith,Life Sciences,P&I Voucher,15000,Halifax,Halifax Regional Municipality,B3H1T1,2018 - 2019,-63.58619,44.636159,POINT (-63.58619 44.636159)
Bear Cove Resources,Advanced Manufacturing,P&I Voucher,15000,Brooklyn,Lunenburg,B0J1H0,2018 - 2019,-64.710851,44.055473,POINT (-64.710851 44.055473)
Defenzall Therapeutics Inc.,Life Sciences,P&I Voucher,15000,Fletchers Lake,Halifax Regional Municipality,B2T1A5,2018 - 2019,-63.60358426,44.8481452,POINT (-63.60358426 44.8481452)
Finleaf Technologies Inc.,Agri-food,P&I Voucher,15000,Bedford,Halifax Regional Municipality,B4A1E6,2018 - 2019,-63.657959,44.731599,POINT (-63.657959 44.731599)
Stones Pharmacy,Life Sciences,P&I Voucher,25000,Baddeck,Victoria,B0E1B0,2018 - 2019,-60.751528,46.100472,POINT (-60.751528 46.100472)
Propel BioEnergy LTD.,Energy,P&I Voucher,15000,Dartmouth,Halifax Regional Municipality,B2X2A5,2018 - 2019,-63.536483,44.693342,POINT (-63.536483 44.693342)
Graphite Innovation and Technologies Inc.,Advanced Manufacturing,P&I Voucher,25000,Dartmouth,Halifax Regional Municipality,B2Y4M9,2018 - 2019,-63.542698,44.660305,POINT (-63.542698 44.660305)
Apaqtaukewaq Fishery Co-op,Fish & Seafood Processing,P&I Voucher,15000,St Peters,Richmond,B0E3B0,2018 - 2019,-60.957559,45.620463,POINT (-60.957559 45.620463)
PPT Labs Inc.,ICT (includes Digital Media),P&I Voucher,25000,Halifax,Halifax Regional Municipality,B3K3T7,2018 - 2019,-63.58727,44.652558,POINT (-63.58727 44.652558)
Surrette Battery Company Limited,Advanced Manufacturing,P&I Voucher,25000,Springhill,Cumberland,B0M1X0,2018 - 2019,-64.034548,45.664595,POINT (-64.034548 45.664595)
The Soap Company of Nova Scotia Ltd,Advanced Manufacturing,P&I Voucher,15000,Sherbrooke,Guysborough,B0J3C0,2018 - 2019,-62.026841,45.193706,POINT (-62.026841 45.193706)
Tony's Meats Ltd,Agri-food,P&I Voucher,15000,Antigonish,Antigonish,B2G2L2,2018 - 2019,-61.944846,45.654903,POINT (-61.944846 45.654903)
NovaResp Technologies Inc.,ICT (includes Digital Media),P&I Voucher,15000,Halifax,Halifax Regional Municipality,B3H4R4,2018 - 2019,-63.56954723,44.63642004,POINT (-63.56954723 44.63642004)
Elcora Advanced Materials Corp,Energy,P&I Voucher,25000,Bedford,Halifax Regional Municipality,B4A2T3,2018 - 2019,-63.646705,44.737949,POINT (-63.646705 44.737949)
Yarmouth Bar Fisheries Limited,Fish & Seafood Processing,P&I Voucher,15000,Yarmouth,Yarmouth,B5A4A7,2018 - 2019,-66.13783,43.83244,POINT (-66.13783 43.83244)
Midgard Insect Farm Inc,Agri-food,P&I Voucher,25000,Halifax,Halifax Regional Municipality,B3L1V1,2018 - 2019,-63.602803,44.654196,POINT (-63.602803 44.654196)
Green Power Labs Inc,Energy,P&I Voucher,25000,Dartmouth,Halifax Regional Municipality,B2Y4M9,2018 - 2019,-63.542698,44.660305,POINT (-63.542698 44.660305)
Spritely Technologies Inc,ICT (includes Digital Media),P&I Voucher,25000,Halifax,Halifax Regional Municipality,B3S1E5,2018 - 2019,-63.665971,44.662523,POINT (-63.665971 44.662523)
LED Roadway Lighting Ltd,Advanced Manufacturing,P&I Voucher,15000,Halifax,Halifax Regional Municipality,B3S1B3,2018 - 2019,-63.663711,44.637971,POINT (-63.663711 44.637971)
Copol International Ltd.,Advanced Manufacturing,P&I Voucher,15000,North Sydney,Cape Breton,B2A3M4,2018 - 2019,-60.24105,46.237929,POINT (-60.24105 46.237929)
PitchPerfect Software Inc. operating as Proposify,ICT (includes Digital Media),Payroll Rebate,1057400,Halifax,Halifax Regional Municipality,B3J2A2,2018 - 2019,-63.573726,44.646512,POINT (-63.573726 44.646512)
Introhive Services (NS) Inc.,ICT (includes Digital Media),Payroll Rebate,691800,Timberlea,Halifax Regional Municipality,B3T1C4,2018 - 2019,-63.72337595,44.64997307,POINT (-63.72337595 44.64997307)
The Sydney Call Centre Inc.,ICT (includes Digital Media),Payroll Rebate,2475000,Sydney,Halifax Regional Municipality,B1P1W8,2018 - 2019,-60.18146341,46.14405113,POINT (-60.18146341 46.14405113)
REDspace Inc,ICT (includes Digital Media),Payroll Rebate,1497500,Bedford,Halifax Regional Municipality,B4A1E5,2018 - 2019,-63.66024,44.731123,POINT (-63.66024 44.731123)
Influitive Corporation,ICT (includes Digital Media),Payroll Rebate,448000,,Halifax Regional Municipality,,2018 - 2019,,,
Savormetrics Inc.,ICT (includes Digital Media),Payroll Rebate,619650,Halifax,Halifax Regional Municipality,B3J2X2,2018 - 2019,-63.645986,44.648416,POINT (-63.645986 44.648416)
Monkedia LLC,ICT (includes Digital Media),Payroll Rebate,610350,Dartmouth,Halifax Regional Municipality,B2Y4J2,2018 - 2019,-63.552011,44.678941,POINT (-63.552011 44.678941)
Manulife Financial,Finance & Insurance,Payroll Rebate,0,Halifax,Halifax Regional Municipality,B3L4G6,2018 - 2019,-63.623007,44.643294,POINT (-63.623007 44.643294)
Dilytics,ICT (includes Digital Media),Payroll Rebate,0,Dartmouth,Halifax Regional Municipality,B3B1N1,2018 - 2019,-63.604559,44.709923,POINT (-63.604559 44.709923)
BeyondTrust Software Inc.,ICT (includes Digital Media),Payroll Rebate,3120563,Halifax,Halifax Regional Municipality,B3J3N4,2018 - 2019,-63.57347352,44.64895408,POINT (-63.57347352 44.64895408)
10380008 Canada Inc dba MobSquad,ICT (includes Digital Media),Payroll Rebate,2084800,Halifax,Halifax Regional Municipality,B3K5T8,2018 - 2019,-63.581038,44.652525,POINT (-63.581038 44.652525)
Gael Force Group,Oceans Technology,Project Management,0,East Bay,Halifax Regional Municipality,B0A1H0,2018 - 2019,-60.446479,45.850577,POINT (-60.446479 45.850577)
